_id,case_no,ap_case_defn_key,status_dttm,status,code,value,description,violation_stno,violation_sthigh,violation_street,violation_suffix,violation_city,violation_state,violation_zip,ward,contact_addr1,contact_addr2,contact_city,contact_state,contact_zip,sam_id,latitude,longitude,location
1,V91983,1013,,Closed,121.2,N/A,Unsafe and Dangerous,302,,Sumner,ST,East Boston,MA,02128,01,302 Sumner St,,East Boston,MA,02128,132380,42.367678491254956,-71.0365803778755,"(42.367678491254956, -71.0365803778755)"
2,V830092,1013,2025-04-24 14:18:51,Open,107.4,N/A,Failed to comply w permit term,32,,Norwood,ST,Dorchester,MA,02122,16,6 Wenlock St,,Dorchester,MA,02122,104164,42.29144950826552,-71.04617056847086,"(42.29144950826552, -71.04617056847086)"
3,V830088,1013,2025-04-24 14:08:51,Open,107.4,N/A,Failed to comply w permit term,32,,Norwood,ST,Dorchester,MA,02122,16,6 Wenlock St,,Dorchester,MA,02122,104164,42.29144950826552,-71.04617056847086,"(42.29144950826552, -71.04617056847086)"
4,V830084,1013,2025-04-24 13:43:55,Open,5110.1,N/A,Failure to secure permit,259,,Quincy,ST,Dorchester,MA,02121,14,26 Iron Hollow Rd,,Sharon,MA,02067,114050,42.311770543109134,-71.07251058241921,"(42.311770543109134, -71.07251058241921)"
5,V830081,1013,2025-04-24 13:34:03,Open,107.4,N/A,Failed to comply w permit term,110,,Saint Botolph,ST,Boston,MA,02115,04,275 Washington St,Suite 400,Newton,MA,02458,120629,42.34438955159917,-71.08113052957886,"(42.34438955159917, -71.08113052957886)"
6,V830058,1013,2025-04-24 13:11:27,Open,116,N/A,Unsafe Structures,12,,Claremont,PK,Roxbury,MA,02118,04,12 Claremont Pk,,Boston,MA,02118,33024,42.34194655201458,-71.08131053559386,"(42.34194655201458, -71.08131053559386)"
7,V830047,1013,2025-04-24 11:48:59,Open,5103.1,N/A,Maintenance,348,,Bowdoin,ST,Dorchester,MA,02122,15,348 Bowdoin St,,Dorchester,MA,02124,17726,42.30876953254653,-71.06467057216668,"(42.30876953254653, -71.06467057216668)"
8,V830042,1013,2025-04-24 11:35:23,Open,102.8,N/A,Maintenance,2,,Portina,RD,Brighton,MA,02135,22,39 ST PAUL ST #1,,BROOKLINE,MA,02446,112298,42.343849648413816,-71.15537069786333,"(42.343849648413816, -71.15537069786333)"
9,V830024,1013,2025-04-24 11:15:21,Open,105.1,N/A,Failure to Obtain Permit,2,,Portina,RD,Brighton,MA,02135,22,39 St Paul St,#1,Brookline,MA,02446,112298,42.343849648413816,-71.15537069786333,"(42.343849648413816, -71.15537069786333)"
10,V829566,1013,2025-04-22 10:51:43,Open,105.1,N/A,Failure to Obtain Permit,30A,30,Cleveland,ST,Hyde Park,MA,02136,18,30 Cleveland St,,Hyde Park,MA,02136,163488,42.25476189382426,-71.13029032553385,"(42.25476189382426, -71.13029032553385)"
11,V829555,1013,2025-04-22 10:40:08,Open,102.8,N/A,Maintenance,550,,Tremont,ST,Roxbury,MA,02118,03,220 Boylston St,#1003,Boston,MA,02116,137629,42.34389453816969,-71.07126350836518,"(42.34389453816969, -71.07126350836518)"
12,V751957,1013,2025-04-22 09:10:38,Closed,R104.6,N/A,Right of Entry,46,,Mystic,ST,Charlestown,MA,02129,02,18 Essex St,,Middleton,MA,01949,100018,42.380499523795415,-71.06228040623316,"(42.380499523795415, -71.06228040623316)"
13,V829246,1013,2025-04-18 13:53:13,Open,102.8,N/A,Maintenance,384,,Warren,ST,Roxbury,MA,02119,12,1900 Crowd Colony Dr,Suite 304,Quincy,MA,02169,170975,42.3178270133598,-71.08154235246155,"(42.3178270133598, -71.08154235246155)"
14,V829267,1013,2025-04-18 13:28:27,Open,102.2.2,N/A,Municipal Bylaws or Ordinances,165,165A,Friend,ST,Boston,MA,02114,03,1583 Beacon Street,3rd Floor,Brookline,MA,02446,165458,42.363661778157685,-71.05990219997507,"(42.363661778157685, -71.05990219997507)"
15,V829247,1013,2025-04-18 11:38:51,Open,102.8,N/A,Maintenance,15,,Denby,RD,Allston,MA,02134,22,15 Demby Rd,,Allston,MA,02134,47258,42.35540361966552,-71.13460962447854,"(42.35540361966552, -71.13460962447854)"
16,V829218,1013,2025-04-18 08:25:16,Open,105.6,N/A,Suspension or Revocation,51,,Montmorenci,AV,East Boston,MA,02128,01,51 Montmorenci Ave,,East Boston,MA,02128,96740,42.391349453978584,-71.00715025889502,"(42.391349453978584, -71.00715025889502)"
17,V829113,1013,2025-04-17 11:52:15,Open,105.1,N/A,Failure to Obtain Permit,46,,Mystic,ST,Charlestown,MA,02129,02,18 Essex St,,Middleton,MA,01949,100018,42.380499523795415,-71.06228040623316,"(42.380499523795415, -71.06228040623316)"
18,V829102,1013,2025-04-17 11:29:32,Open,105.1,N/A,Failure to Obtain Permit,6,,Ware,ST,Dorchester,MA,02125,15,620 Washington St,,Brookline,MA,02446,142741,42.31168953462587,-71.06618056904182,"(42.31168953462587, -71.06618056904182)"
19,V829041,1013,2025-04-17 08:51:43,Open,110.14,N/A,Electrical Connections,95,,Moreland,ST,Roxbury,MA,02119,12,280 WARREN STREET,,BOSTON,MA,02119,158254,42.323020005318284,-71.07746180269467,"(42.323020005318284, -71.07746180269467)"
20,V817736,1013,2025-04-15 15:08:11,Open,1001.3.2,N/A,Testing & Certification,4,,Gloucester,ST,Boston,MA,02115,05,4 Gloucester St,,Boston,MA,02115,64950,42.35139955556921,-71.08547052284729,"(42.35139955556921, -71.08547052284729)"
21,V809952,1013,2025-04-15 15:06:46,Open,105.1,N/A,Failure to Obtain Permit,70,,Commonwealth,AV,Boston,MA,02116,05,70 COMMONWEALTH AVE #5,,BOSTON,MA,02116,41226,42.352319541980954,-71.07489049713848,"(42.352319541980954, -71.07489049713848)"
22,V817583,1013,2025-04-15 08:25:47,Open,1001.3.2,N/A,Testing & Certification,1254,,Commonwealth,AV,Allston,MA,02134,21,190 High St,6th Floor,Boston,MA,02110,355247,42.34934879526562,-71.13200593201512,"(42.34934879526562, -71.13200593201512)"
23,V817599,1013,2025-04-15 08:25:12,Open,1001.3.2,N/A,Testing & Certification,1258,,Commonwealth,AV,Allston,MA,02134,21,190 High Street,6th Floor,Boston,MA,02110,163755,42.34925250017175,-71.13221513610124,"(42.34925250017175, -71.13221513610124)"
24,V817578,1013,2025-04-15 08:24:29,Open,1001.3.2,N/A,Testing & Certification,36,38,Symphony,RD,Boston,MA,02115,04,190 High Street,6th Floor,Boston,MA,02110,133490,42.34282956160564,-71.08846054948911,"(42.34282956160564, -71.08846054948911)"
25,V827875,1013,2025-04-14 12:23:42,Open,102.8,N/A,Maintenance,4,,Dwight,ST,Roxbury,MA,02118,03,33 Kirkwood Rd,,Brighton,MA,02135,50386,42.343849533471015,-71.06792049989747,"(42.343849533471015, -71.06792049989747)"
26,V827876,1013,2025-04-11 13:25:40,Open,102.8,N/A,Maintenance,16,,Rutland,SQ,Roxbury,MA,02118,04,16 Rutland Sq,,Boston,MA,02118,120045,42.34139954752745,-71.0780805289375,"(42.34139954752745, -71.0780805289375)"
27,V827832,1013,2025-04-11 09:43:36,Open,116,N/A,Unsafe Structures,165,,Kelton,ST,Allston,MA,02134,21,60 Leo M Birmingham PKWY,,Brighton,MA,02135,80889,42.34751962601718,-71.13842065113431,"(42.34751962601718, -71.13842065113431)"
28,V827799,1013,2025-04-11 08:18:47,Open,116,N/A,Unsafe Structures,111,,Spring,ST,West Roxbury,MA,02132,20,111 Spring St,,West Roxbury,MA,02132,129492,42.27710967672366,-71.16528086919445,"(42.27710967672366, -71.16528086919445)"
29,V810626,1013,2025-04-09 09:40:27,Open,102.8,N/A,Maintenance,2,,Hartford,ST,Dorchester,MA,02125,13,"178 Liberty Street, Unit 2",,Quincy,MA,02169,70208,42.318269544420374,-71.07395057071416,"(42.318269544420374, -71.07395057071416)"
30,V813279,1013,2025-04-09 09:39:01,Open,102.8,N/A,Maintenance,96,,Mount Vernon,ST,Boston,MA,02108,05,192 Lexington Ave,Suite 1100,New York,NY,10016-6823,98779,42.357809533885316,-71.0689604722894,"(42.357809533885316, -71.0689604722894)"
31,V759704,1013,2025-04-09 08:35:57,Open,102.8,N/A,Maintenance,119,,Woodhaven,ST,Mattapan,MA,02126,18,119 WOODHAVEN ST,,MATTAPAN,MA,02126,151565,42.27055958341214,-71.09832073260836,"(42.27055958341214, -71.09832073260836)"
32,V827241,1013,2025-04-09 08:21:17,Open,105.1,N/A,Failure to Obtain Permit,35,,Freeport,ST,Dorchester,MA,02122,15,36 Westwood St,,Dorchester,MA,02121,379323,42.306839523387076,-71.05795056103985,"(42.306839523387076, -71.05795056103985)"
33,V826492,1013,2025-04-04 14:39:53,Open,102.8,N/A,Maintenance,200,,Everett,ST,East Boston,MA,02128,01,9 Emmons  St,,East Boston,MA,02128,55087,42.36606948452924,-71.03111036801093,"(42.36606948452924, -71.03111036801093)"
34,V826207,1013,2025-04-03 08:32:27,Open,116,N/A,Unsafe Structures,541,549,Adams,ST,Dorchester,MA,02122,16,541 ADAMS,C/O LUN LUN HUANG,DORCHESTER,MA,02122,781,42.291039523774344,-71.05735059463564,"(42.291039523774344, -71.05735059463564)"
35,V825956,1013,2025-04-02 09:35:25,Closed,116,N/A,Unsafe Structures,2,6,Albemarle,ST,Hyde Park,MA,02136,18,2 ALBEMARLE CT,,HYDE PARK,MA,02136,343983,42.24248524895871,-71.13389666165486,"(42.24248524895871, -71.13389666165486)"
36,V825922,1013,2025-04-02 08:42:50,Open,102.8,N/A,Maintenance,124,,Academy Hill,RD,Brighton,MA,02135,22,124 Academy Hill Rd,,Brighton,MA,02135,218,42.345049648967716,-71.15502069395845,"(42.345049648967716, -71.15502069395845)"
37,V825344,1013,2025-03-31 09:33:06,Open,116,N/A,Unsafe Structures,29,,Rosemont,ST,Dorchester,MA,02122,16,50 Main St,,Woburn,MA,01801,118469,42.29262952174485,-71.05566058764356,"(42.29262952174485, -71.05566058764356)"
38,V825314,1013,2025-03-31 08:51:02,Open,116,N/A,Unsafe Structures,4,16,River,ST,Mattapan,MA,02126,17,75 Federal St,4th Floor,Boston,MA,02110,169117,42.2718405885408,-71.06999986256697,"(42.2718405885408, -71.06999986256697)"
39,V790092,1013,2025-03-28 14:32:25,Open,1001.3.3,N/A,,41,,High,ST,Charlestown,MA,02129,02,41 HIGH ST,,CHARLESTOWN,MA,02129,73395,42.376427524512145,-71.06275941632299,"(42.376427524512145, -71.06275941632299)"
40,V825069,1013,2025-03-28 14:11:11,Open,1001.3.2,N/A,Testing & Certification,463,,Beacon,ST,Boston,MA,02115,05,301 SOUTH AV,,WESTON,MA,02493,11540,42.35092955979684,-71.08821052970953,"(42.35092955979684, -71.08821052970953)"
41,V825002,1013,2025-03-28 08:36:42,Open,116,N/A,Unsafe Structures,25,,Greycliff,RD,Brighton,MA,02135,22,"500 LINCOLN ST, 2ND FLOOR",,ALLSTON,MA,02134,67190,42.34099965684139,-71.16078071632217,"(42.34099965684139, -71.16078071632217)"
42,V824908,1013,2025-03-27 12:58:34,Open,105.1,N/A,Failure to Obtain Permit,19,,Hiawatha,RD,Mattapan,MA,02126,18,61 Locust St,Unit 246,Medford,MA,02155,73219,42.27666857767702,-71.09457371046959,"(42.27666857767702, -71.09457371046959)"
43,V817070,1013,2025-03-27 09:52:12,Open,105.1,N/A,Failure to Obtain Permit,764,764A,Tremont,ST,Roxbury,MA,02118,09,"169 West Springfield St, Unit C",,Boston,MA,02118,170470,42.33954280874566,-71.07922892925852,"(42.33954280874566, -71.07922892925852)"
44,V822810,1013,2025-03-27 09:51:32,Open,1001.3.2,N/A,Testing & Certification,9,,Ruggles,ST,Roxbury,MA,02119,09,58 GAINSBOROUGH ST,,BOSTON,MA,02115,169345,42.33143903317276,-71.08306755096795,"(42.33143903317276, -71.08306755096795)"
45,V822411,1013,2025-03-27 09:50:50,Open,1001.3.2,N/A,Testing & Certification,752,,Tremont,ST,Roxbury,MA,02118,09,74 CLARENDON ST SUITE A,C/O HEATH PROPERTIES,BOSTON,MA,02116,137944,42.33978954843001,-71.07887053394887,"(42.33978954843001, -71.07887053394887)"
46,V824231,1013,2025-03-25 10:06:12,Open,1006.1,N/A,Number of Exits or Exit Access,1618,1634,Blue Hill,AV,Mattapan,MA,02126,18,1340 Centre Street,Suite 101,Newton,MA,02459,16338,42.268769576641034,-71.09334072683531,"(42.268769576641034, -71.09334072683531)"
47,V824070,1013,2025-03-24 14:45:16,Closed,105.1,N/A,Failure to Obtain Permit,23,,Grassmere,RD,Hyde Park,MA,02136,18,23 GRASSMERE RD,,HYDE PARK,MA,02136,66017,42.26866962746323,-71.12939080775053,"(42.26866962746323, -71.12939080775053)"
48,V824010,1013,2025-03-24 11:35:32,Open,105.1,N/A,Failure to Obtain Permit,118,120,Broadway,,South Boston,MA,02127,06,54 Selwyn Rd,,Newton,MA,02461,21385,42.34136953047815,-71.05455130303392,"(42.34136953047815, -71.05455130303392)"
49,V823731,1013,2025-03-21 11:26:34,Open,105.1,N/A,Failure to Obtain Permit,116H,116,Broadway,,South Boston,MA,02127,06,116 West Broadway,,South Boston,MA,02127,171454,42.3414049932394,-71.05461314249088,"(42.3414049932394, -71.05461314249088)"
50,V823727,1013,2025-03-21 11:06:09,Open,105.1,N/A,Failure to Obtain Permit,324,,Dorchester,ST,South Boston,MA,02127,07,324 Dorchester St,,South Boston,MA,02127,48986,42.33101951557269,-71.0536104967779,"(42.33101951557269, -71.0536104967779)"
51,V823721,1013,2025-03-21 10:39:19,Open,105.1,N/A,Failure to Obtain Permit,325,327,Dorchester,ST,South Boston,MA,02127,07,156 Union St,,Hingham,MA,02043,48990,42.331239516579195,-71.05411049719554,"(42.331239516579195, -71.05411049719554)"
52,V823715,1013,2025-03-21 10:09:16,Open,105.1,N/A,Failure to Obtain Permit,321,323,Dorchester,ST,South Boston,MA,02127,07,26 Leland Rd,,Chestnut Hill,MA,02467,48984,42.33128951658819,-71.05404049781247,"(42.33128951658819, -71.05404049781247)"
53,V812528,1013,2025-03-20 10:30:30,Open,107.4,N/A,Failed to comply w permit term,2,,Mark,ST,Jamaica Plain,MA,02130,10,31 New Chardon St,,Boston,MA,02114,90155,42.32263959213916,-71.1094806414619,"(42.32263959213916, -71.1094806414619)"
54,V823486,1013,2025-03-20 08:14:08,Open,116,N/A,Unsafe Structures,261,,Princeton,ST,East Boston,MA,02128,01,580 Harrison Avenue,Suite 3N,Boston,MA,02118,113273,42.37969866218197,-71.02986570528405,"(42.37969866218197, -71.02986570528405)"
55,V823379,1013,2025-03-19 14:43:24,Open,102.8,N/A,Maintenance,33,35,Bowdoin,ST,Boston,MA,02114,03,80 Ridgewood Road,,Attleboro,MA,02703,419258,42.360105689677496,-71.06313697388973,"(42.360105689677496, -71.06313697388973)"
56,V820042,1013,2025-03-19 11:26:34,Open,1001.3.2,N/A,Testing & Certification,768,772,Tremont,ST,Roxbury,MA,02118,09,1313 Washington Street,Suite 115,Boston,MA,02118,137981,42.33941725925933,-71.07970527104894,"(42.33941725925933, -71.07970527104894)"
57,V816927,1013,2025-03-19 10:14:44,Open,116,N/A,Unsafe Structures,26,,Monponset,ST,Mattapan,MA,02136,18,31 Massasoit St,,Hyde Park,MA,02136,96426,42.263609585637454,-71.09938075155385,"(42.263609585637454, -71.09938075155385)"
58,V803117,1013,2025-03-19 08:37:30,Open,116,N/A,Unsafe Structures,683,,Columbia,RD,Dorchester,MA,02125,07,923 Hyde Park Ave,,Hyde Park,MA,02136,35361,42.31952952907696,-71.06236054203828,"(42.31952952907696, -71.06236054203828)"
59,V823219,1013,2025-03-19 07:51:01,Open,102.8,N/A,Maintenance,33,,Walker,ST,Charlestown,MA,02129,02,33 WALKER ST,,CHARLESTOWN,MA,02129,141767,42.37908552876274,-71.06675241913922,"(42.37908552876274, -71.06675241913922)"
60,V726453,1013,2025-03-17 11:12:03,Open,105.1,N/A,Failure to Obtain Permit,392,,Beech,ST,Roslindale,MA,02131,18,39 Myrtle Street,,Norwood,MA,02062,13214,42.277849635200575,-71.1358308023352,"(42.277849635200575, -71.1358308023352)"
61,V726462,1013,2025-03-17 11:10:49,Open,1001.3.2,N/A,Testing & Certification,392,,Beech,ST,Roslindale,MA,02131,18,39 Myrtle Street,,Norwood,MA,02062,13214,42.277849635200575,-71.1358308023352,"(42.277849635200575, -71.1358308023352)"
62,V822817,1013,2025-03-17 09:14:12,Open,105.1,N/A,Failure to Obtain Permit,80,,Messinger,ST,Mattapan,MA,02126,18,80 Messinger St,,Mattapan,MA,02126,94741,42.2745095885243,-71.10172073258325,"(42.2745095885243, -71.10172073258325)"
63,V822815,1013,2025-03-17 09:11:35,Closed,116,N/A,Unsafe Structures,34,,King,ST,Dorchester,MA,02122,16,40 HAMPSHIRE ROAD,,READING,MA,01867,166771,42.29274986947906,-71.05959134606121,"(42.29274986947906, -71.05959134606121)"
64,V822814,1013,2025-03-17 09:04:04,Open,105.1,N/A,Failure to Obtain Permit,47,,Maple,ST,Hyde Park,MA,02136,18,47 MAPLE ST,,HYDE PARK,MA,02136,89237,42.25421962066178,-71.12264082516657,"(42.25421962066178, -71.12264082516657)"
65,V822801,1013,2025-03-17 08:17:15,Open,105,N/A,Permits,195,,Faneuil,ST,Brighton,MA,02135,22,195 FANEUIL ST,,BRIGHTON,MA,02135,405774,42.35423965074504,-71.15833068108905,"(42.35423965074504, -71.15833068108905)"
66,V714300,1013,2025-03-14 13:54:42,Closed,102.8,N/A,Maintenance,18,,Bayside,ST,Dorchester,MA,02125,13,"18 BAYSIDE ST, #3",,DORCHESTER,MA,02125,9209,42.30835951299848,-71.05058054076507,"(42.30835951299848, -71.05058054076507)"
67,V779249,1013,2025-03-14 09:19:21,Open,105.1,N/A,Failure to Obtain Permit,20,,Hallowell,ST,Mattapan,MA,02126,18,20 HALLOWELL ST,,MATTAPAN,MA,02126,68281,42.27130958769795,-71.1013207379838,"(42.27130958769795, -71.1013207379838)"
68,V755211,1013,2025-03-14 09:12:22,Open,104.6,N/A,Right of Entry,1800,,River,ST,Hyde Park,MA,02136,18,1800 RIVER ST,,HYDE PARK,MA,02136,116509,42.24373967504279,-71.13840087546671,"(42.24373967504279, -71.13840087546671)"
69,V822519,1013,2025-03-13 14:25:02,Closed,102.8,N/A,Maintenance,25,,Wabon,ST,Dorchester,MA,02121,12,74 Clarendon  St,Suite A,Boston,MA,02116,141065,42.31479956086352,-71.08614060706793,"(42.31479956086352, -71.08614060706793)"
70,V822516,1013,2025-03-13 14:13:31,Open,105.1,N/A,Failure to Obtain Permit,101,103,Fuller,ST,Dorchester,MA,02124,17,101 Fuller St,,Dorchester,MA,02124,61086,42.28249954286243,-71.07037064347426,"(42.28249954286243, -71.07037064347426)"
71,V822515,1013,2025-03-13 14:03:09,Open,102.8,N/A,Maintenance,43,45,Kingston,ST,Boston,MA,02111,03,30 Embankment Rd,,Boston,MA,02114,82025,42.35356548963493,-71.05958526621146,"(42.35356548963493, -71.05958526621146)"
72,V817746,1013,2025-03-13 13:30:38,Open,105.1,N/A,Failure to Obtain Permit,101,,Orleans,ST,East Boston,MA,02128,01,186 Maverick St,,East Boston,MA,02128,105876,42.36941949145651,-71.03662037392571,"(42.36941949145651, -71.03662037392571)"
73,V822392,1013,2025-03-13 08:32:49,Closed,105.1,N/A,Failure to Obtain Permit,147,,Boston,ST,Dorchester,MA,02125,07,1451 Tremont St,,Boston,MA,02120,17098,42.32469952451592,-71.059700525813,"(42.32469952451592, -71.059700525813)"
74,V822372,1013,2025-03-13 07:59:55,Open,230.2,N/A,Number of Services,9,,Church,ST,Hyde Park,MA,02136,18,135 ROBERT TREAT PAINE DR,,TAUNTON,MA,02780,32669,42.24896964031373,-71.131980855726,"(42.24896964031373, -71.131980855726)"
75,V822221,1013,2025-03-12 11:32:17,Closed,116,N/A,Unsafe Structures,27,29,Perrin,ST,Roxbury,MA,02119,12,60 HOMES AVE APT 1,,DORCHESTER,MA,02122,109587,42.32248955014241,-71.07868057273258,"(42.32248955014241, -71.07868057273258)"
76,V822198,1013,2025-03-12 10:41:00,Open,111.1,N/A,Certificate of Occupancy,454,464,Hanover,ST,Boston,MA,02113,03,100 LOVEJOY WHARF UNIT #14E,,BOSTON,MA,02114,69182,42.36694951246231,-71.05277341562781,"(42.36694951246231, -71.05277341562781)"
77,V769383,1013,2025-03-12 10:16:48,Open,105.1,N/A,Failure to Obtain Permit,6,,Westcott,ST,Dorchester,MA,02124,14,6 WESCOTT ST,,DORCHESTER,MA,02124,148115,42.293689553268536,-71.07874063794397,"(42.293689553268536, -71.07874063794397)"
78,V766175,1013,2025-03-12 10:16:09,Open,102.8,N/A,Maintenance,4,,Gilmer,ST,Mattapan,MA,02126,14,424 Adams Street,Suite 202,Milton,MA,02186,63705,42.28247958023677,-71.097000703611,"(42.28247958023677, -71.097000703611)"
79,V811021,1013,2025-03-12 10:15:38,Open,116,N/A,Unsafe Structures,4,,Gilmer,ST,Mattapan,MA,02126,14,4 GILMER ST,,BOSTON,MA,02126,63705,42.28247958023677,-71.097000703611,"(42.28247958023677, -71.097000703611)"
80,V822131,1013,2025-03-12 08:27:20,Closed,116,N/A,Unsafe Structures,18,,Milford,ST,Roxbury,MA,02118,03,13 WILLOW ST #2,C/O RENAISSANCE INVESTMENTS AT 18 MILFO,SALEM,MA,01970,95334,42.34399953666289,-71.06987050547826,"(42.34399953666289, -71.06987050547826)"
81,V821906,1013,2025-03-11 10:51:41,Open,102.8,N/A,Maintenance,711,715A,South,ST,Roslindale,MA,02131,20,719 South St,,Roslindale,MA,02131,128933,42.28702962341958,-71.12817076333795,"(42.28702962341958, -71.12817076333795)"
82,V811630,1013,2025-03-11 10:22:18,Open,116,N/A,Unsafe Structures,19,,Fresno,ST,Roslindale,MA,02131,20,19 Fresno St,,Roslindale,MA,02131,60961,42.283969635312076,-71.13675078987976,"(42.283969635312076, -71.13675078987976)"
83,V811628,1013,2025-03-11 10:21:39,Open,105.1,N/A,Failure to Obtain Permit,114,,Walworth,ST,Roslindale,MA,02131,20,114 Walworth St,,Roslindale,MA,02131,142580,42.28328963564217,-71.13719079290932,"(42.28328963564217, -71.13719079290932)"
84,V811625,1013,2025-03-11 10:20:36,Open,105.1,N/A,Failure to Obtain Permit,617,,South,ST,Roslindale,MA,02131,19,617 South St Unit 1,,Roslindale,MA,02131,128884,42.29163961760935,-71.12430074496224,"(42.29163961760935, -71.12430074496224)"
85,V821917,1013,2025-03-11 10:06:13,Closed,102.8,N/A,Maintenance,417,423C,Broadway,,South Boston,MA,02127,06,896 Beacon St #201,,Boston,MA,02215,21499,42.33649750752286,-71.04777847245511,"(42.33649750752286, -71.04777847245511)"
86,V756499,1013,2025-03-11 09:44:48,Open,105.1,N/A,Failure to Obtain Permit,372,378,Boylston,ST,Boston,MA,02116,05,"218 Newbury St, #3",,Boston,MA,02116,18313,42.35140553838621,-71.07168249236689,"(42.35140553838621, -71.07168249236689)"
87,V793503,1013,2025-03-11 09:44:18,Open,105.1,N/A,Failure to Obtain Permit,670,,Columbia,RD,Dorchester,MA,02125,07,54 Sunnyside Rd,,Milton,MA,02186,35352,42.31949952967017,-71.06319054405677,"(42.31949952967017, -71.06319054405677)"
88,V799390,1013,2025-03-11 09:42:02,Open,Art. 17 Section 2.04 (3) ,N/A,Permits,497,505,Washington,ST,Dorchester,MA,02124,17,302 SHAWMUT AVE,,BOSTON,MA,02118,146095,42.29425954402293,-71.07215062138965,"(42.29425954402293, -71.07215062138965)"
89,V799413,1013,2025-03-11 09:41:27,Open,105.1,N/A,Failure to Obtain Permit,280,,Lincoln,ST,Allston,MA,02134,22,280 LINCOLN ST,,Allston,MA,02134,85983,42.3573296178885,-71.1340706188272,"(42.3573296178885, -71.1340706188272)"
90,V803014,1013,2025-03-11 09:40:44,Open,116,N/A,Unsafe Structures,123,,Faneuil,ST,Brighton,MA,02135,22,46 Grouse Street,,West Roxbury,MA,02132,56145,42.35585964708456,-71.155590670987,"(42.35585964708456, -71.155590670987)"
91,V783049,1013,2025-03-11 09:40:09,Open,116,N/A,Unsafe Structures,11,11A,Bayard,ST,Allston,MA,02134,22,"311 GOLF ROAD, #1200",,WEST PALM BEACH,FL,33407,161850,42.36101890884656,-71.13038827670941,"(42.36101890884656, -71.13038827670941)"
92,V795122,1013,2025-03-11 09:39:15,Open,105.1,N/A,Failure to Obtain Permit,51,53,Nottinghill,RD,Brighton,MA,02135,21,8 Chestnut Hill Ave,,Brighton,Ma,02135,104262,42.342680641443565,-71.14955068639297,"(42.342680641443565, -71.14955068639297)"
93,V821911,1013,2025-03-11 09:37:18,Open,102.8,N/A,Maintenance,48,,Englewood,AV,Brighton,MA,02135,21,37 Woodman Rd,,Chestnut Hill,MA,02467,54089,42.33788963923403,-71.14714069238914,"(42.33788963923403, -71.14714069238914)"
94,V773153,1013,2025-03-11 09:24:18,Open,105.1,N/A,Failure to Obtain Permit,35,37,Fairmount,AV,Hyde Park,MA,02136,18,35-37 FAIRMOUNT AV,,HYDE PARK,MA,02136,55743,42.25527456420414,-71.12087814139471,"(42.25527456420414, -71.12087814139471)"
95,V773244,1013,2025-03-11 09:22:45,Closed,1001.3.2,N/A,Testing & Certification,35,37,Fairmount,AV,Hyde Park,MA,02136,18,35-37 FAIRMOUNT AV,,HYDE PARK,MA,02136,55743,42.25527456420414,-71.12087814139471,"(42.25527456420414, -71.12087814139471)"
96,V821903,1013,2025-03-11 09:18:44,Open,102.8,N/A,Maintenance,27,,Delle,AVE,Mission Hill,MA,02120,10,25 Elizabeth St,,Canton,MA,02021,47195,42.331139576008866,-71.09852059798666,"(42.331139576008866, -71.09852059798666)"
97,V781295,1013,2025-03-11 09:18:26,Open,105.1,N/A,Failure to Obtain Permit,74,,Hollingsworth,ST,Mattapan,MA,02126,18,74 HOLLINGSWORTH ST,C/O E THENOR & F CIVIL,MATTAPAN,MA,02126,74702,42.26780958463229,-71.09914074115827,"(42.26780958463229, -71.09914074115827)"
98,V795844,1013,2025-03-11 09:11:10,Open,116,N/A,Unsafe Structures,44,,Harmon,ST,Mattapan,MA,02126,18,44 HARMON ST,,MATTAPAN,MA,02126,69562,42.26889958927536,-71.10256074596585,"(42.26889958927536, -71.10256074596585)"
99,V764469,1013,2025-03-11 09:09:01,Open,105,N/A,Permits,27,,Gilman,ST,Roslindale,MA,02131,18,27 GILMAN ST,C/O JEAN FRANCKEL JEAN MICHEL,ROSLINDALE,MA,02131,63698,42.278579605843305,-71.115080753364,"(42.278579605843305, -71.115080753364)"
100,V798094,1013,2025-03-11 09:08:25,Open,3307.1,N/A,Protection of Adj. Property,6,,Franklin,ST,Hyde Park,MA,02136,18,6 FRANKLIN ST,,HYDE PARK,MA,02136,60712,42.25205963523045,-71.13290085298178,"(42.25205963523045, -71.13290085298178)"
101,V807553,1013,2025-03-11 09:07:46,Open,105.1,N/A,Failure to Obtain Permit,191,193,Cornell,ST,Roslindale,MA,02131,18,191 CORNELL ST,,ROSLINDALE,MA,02131,42967,42.27930063325594,-71.13485279586867,"(42.27930063325594, -71.13485279586867)"
102,V799049,1013,2025-03-11 09:07:05,Open,105.1,N/A,Failure to Obtain Permit,1183,,Hyde Park,AV,Hyde Park,MA,02136,18,3200 Hackberry Road,,Irving,TX,75063,413509,42.25852962111342,-71.1237608176966,"(42.25852962111342, -71.1237608176966)"
103,V773119,1013,2025-03-11 09:06:30,Open,105.1,N/A,Failure to Obtain Permit,2,,Metropolitan,AV,Roslindale,MA,02131,20,19 BAYBERRY LN,,RANDOLPH,MA,02368,94829,42.282229632575174,-71.13456078891222,"(42.282229632575174, -71.13456078891222)"
104,V788760,1013,2025-03-11 09:05:49,Open,107.4,N/A,Failed to comply w permit term,50,,Meadowbank,AV,Mattapan,MA,02126,18,50 MEADOWBANK AVE,,MATTAPAN,MA,02126,93634,42.26962956203895,-71.08289070086543,"(42.26962956203895, -71.08289070086543)"
105,V821895,1013,2025-03-11 09:05:35,Open,102.8,N/A,Maintenance,519,,Washington,ST,Brighton,MA,02135,22,519 Washington St,,Brighton,MA,02135,143605,42.34927965684099,-71.1623607005153,"(42.34927965684099, -71.1623607005153)"
106,V803506,1013,2025-03-11 09:05:13,Open,105.1,N/A,Failure to Obtain Permit,2,,Linden,AV,Mattapan,MA,02136,18,2 Linden Ave,,Hyde Park,MA,02136,86328,42.26431959554843,-71.10587076437332,"(42.26431959554843, -71.10587076437332)"
107,V762890,1013,2025-03-11 09:04:31,Open,105.1,N/A,Failure to Obtain Permit,62,,Ridgeview,AV,Mattapan,MA,02126,18,25 HORAN WY #187,,JAMAICA PLAIN,MA,02130,115970,42.27396956393202,-71.08476069478372,"(42.27396956393202, -71.08476069478372)"
108,V803039,1013,2025-03-11 09:03:59,Open,102.8,N/A,Maintenance,596,,Metropolitan,AV,Hyde Park,MA,02136,18,596 METROPOLITAN AV,,HYDE PARK,MA,02136,94965,42.26589961169259,-71.11793078730437,"(42.26589961169259, -71.11793078730437)"
109,V805717,1013,2025-03-11 09:02:46,Open,105.1,N/A,Failure to Obtain Permit,1366,1368,River,ST,Hyde Park,MA,02136,18,1366 RIVER ST,,HYDE PARK,MA,02136,169185,42.25481818897631,-71.12793654447935,"(42.25481818897631, -71.12793654447935)"
110,V787770,1013,2025-03-11 09:01:55,Open,105.1,N/A,Failure to Obtain Permit,15,,Violet,ST,Mattapan,MA,02126,18,15 VIOLET ST,,MATTAPAN,MA,02126,140864,42.27420957121014,-71.09012070720473,"(42.27420957121014, -71.09012070720473)"
111,V813135,1013,2025-03-11 09:00:31,Open,105.1,N/A,Failure to Obtain Permit,8,,Charles,ST,Hyde Park,MA,02136,18,1830 Hyde Park Ave,,Boston,MA,02136,29278,42.25128963423366,-71.13160085090387,"(42.25128963423366, -71.13160085090387)"
112,V809642,1013,2025-03-11 08:59:51,Open,105.1,N/A,Failure to Obtain Permit,97,,Alabama,ST,Mattapan,MA,02126,18,97 Alabama St,,Mattapan,MA,02126,1376,42.277289586652344,-71.10110072482041,"(42.277289586652344, -71.10110072482041)"
113,V808663,1013,2025-03-11 08:59:10,Open,105.1,N/A,Failure to Obtain Permit,1651,1657,Blue Hill,AV,Mattapan,MA,02126,18,25 Burlington Mall Road,Suite 307,Burlington,MA,01803,162269,42.267968932630566,-71.09415952396792,"(42.267968932630566, -71.09415952396792)"
114,V809234,1013,2025-03-11 08:56:27,Open,105.1,N/A,Failure to Obtain Permit,1651,1657,Blue Hill,AV,Mattapan,MA,02126,18,1651 Blue Hilll Avenue,,Mattapan,MA,02126,162269,42.267968932630566,-71.09415952396792,"(42.267968932630566, -71.09415952396792)"
115,V821889,1013,2025-03-11 08:56:18,Open,102.8,N/A,Maintenance,858,,Huntington,AV,Mission Hill,MA,02120,10,15 N Beacon St,#1A,Allston,MA,02134,76452,42.332749591658015,-71.1104306220033,"(42.332749591658015, -71.1104306220033)"
116,V821881,1013,2025-03-11 08:45:10,Open,105,N/A,Permits,98,,Bennett,ST,Brighton,MA,02135,22,98 Bennett St,,Brighton,MA,02135,14478,42.35171965118235,-71.15844068677417,"(42.35171965118235, -71.15844068677417)"
117,V821761,1013,2025-03-11 07:51:58,Closed,107.4,N/A,Failed to comply w permit term,27,29,Perrin,ST,Roxbury,MA,02119,12,60 HOMES AVE APT 1,,DORCHESTER,MA,02122,109587,42.32248955014241,-71.07868057273258,"(42.32248955014241, -71.07868057273258)"
118,V821726,1013,2025-03-10 11:14:38,Closed,230.6,N/A,Conductors Considered Outside the Building. Conductors shall be considered outside of a building or other structure under any of the following conditions: Sections 1-5.,50,,Western,AV,Allston,MA,02134,22,75 GETCHELL WAY,,CANTON,MA,02021,456799,42.3627659156533,-71.12212980922737,"(42.3627659156533, -71.12212980922737)"
119,V821505,1013,2025-03-07 14:06:36,Closed,116,N/A,Unsafe Structures,200,,Hancock,ST,Dorchester,MA,02125,13,867 Boylston St,3rd Floor,Boston,MA,02116,68900,42.310539527919914,-71.06115055947708,"(42.310539527919914, -71.06115055947708)"
120,V821504,1013,2025-03-07 13:50:48,Open,116,N/A,Unsafe Structures,55,,Goodale,RD,Mattapan,MA,02126,14,55 Goodale Rd,,Mattapan,MA,02126,65220,42.284029576188146,-71.09390069359362,"(42.284029576188146, -71.09390069359362)"
121,V821451,1013,2025-03-07 08:59:58,Closed,116,N/A,Unsafe Structures,7,,Moraine,ST,Jamaica Plain,MA,02130,19,7 MORAINE ST,,JAMAICA PLAIN,MA,02130,97330,42.31984959599319,-71.1122406547283,"(42.31984959599319, -71.1122406547283)"
122,V821299,1013,2025-03-06 11:05:41,Closed,107.4,N/A,Failed to comply w permit term,45,,Winthrop,ST,Roxbury,MA,02119,12,45 Winthrop St,,Roxbury,MA,02119,151037,42.32560955163152,-71.08013056935285,"(42.32560955163152, -71.08013056935285)"
123,V821282,1013,2025-03-06 10:46:51,Open,116,N/A,Unsafe Structures,60,,Homes,AVE,Dorchester,MA,02122,15,111 Pierce Ave,,Dorchester,MA,02122,75050,42.30315953859829,-71.06868059290682,"(42.30315953859829, -71.06868059290682)"
124,V821273,1013,2025-03-06 09:41:30,Open,105.1,N/A,Failure to Obtain Permit,7,,Delmont,ST,Dorchester,MA,02122,16,7-9 Delmont St,,Dorchester,MA,02122,47246,42.285789519830715,-71.05432060017502,"(42.285789519830715, -71.05432060017502)"
125,V821143,1013,2025-03-05 13:42:41,Open,107.4,N/A,Failed to comply w permit term,165,165A,Friend,ST,Boston,MA,02114,03,1583 BEACON ST #3RD FLOOR,,BROOKLINE,MA,02446,165458,42.363661778157685,-71.05990219997507,"(42.363661778157685, -71.05990219997507)"
126,V819591,1013,2025-03-04 14:16:53,Open,116,N/A,Unsafe Structures,242,,Arborway,,Jamaica Plain,MA,02130,11,9 Jamaica Place,,Jamaica Plain,MA,02130,4360,42.30543360723798,-71.1193357023352,"(42.30543360723798, -71.1193357023352)"
127,V820833,1013,2025-03-04 11:16:24,Open,105.1,N/A,Failure to Obtain Permit,6,8,Eunice,ST,Dorchester,MA,02122,15,6 Eunice St #2,,Dorchester,MA,02122,54531,42.30442954078095,-71.07014059472229,"(42.30442954078095, -71.07014059472229)"
128,V820823,1013,2025-03-04 10:55:55,Open,116,N/A,Unsafe Structures,205,207,Boylston,ST,Jamaica Plain,MA,02130,11,178 Alder Road,,Westwood,MA,02090,18523,42.313909581661406,-71.10139064369729,"(42.313909581661406, -71.10139064369729)"
129,V820811,1013,2025-03-04 10:42:47,Open,105.1,N/A,Failure to Obtain Permit,487,489,Ashmont,ST,Dorchester,MA,02122,16,489 Ashmont Street,,Dorchester,MA,02122,5465,42.288679518191856,-71.05322059091903,"(42.288679518191856, -71.05322059091903)"
130,V820794,1013,2025-03-04 10:00:59,Closed,102.8,N/A,Maintenance,2221,2225,Washington,ST,Roxbury,MA,02119,09,51 Hutchings St,Unit 2,Dorchester,MA,02121,144477,42.3308995555035,-71.08315056379065,"(42.3308995555035, -71.08315056379065)"
131,V820770,1013,2025-03-04 09:17:48,Closed,907.8,N/A,Fire Protection Systems,40,44,Harrison,AV,Boston,MA,02111,03,1 Thompson Square,Suite 405,Charlestown,MA,02129,340723,42.35159938116215,-71.0609966937615,"(42.35159938116215, -71.0609966937615)"
132,V820765,1013,2025-03-04 09:07:03,Open,116,N/A,Unsafe Structures,40,,Ellison,AV,Mattapan,MA,02126,17,40 Ellison Ave,,Dorchester,MA,02124,52977,42.276699546767,-71.07302066162868,"(42.276699546767, -71.07302066162868)"
133,V820755,1013,2025-03-04 08:44:05,Open,104.6,N/A,Right of Entry,245,,Sumner,ST,East Boston,MA,02128,01,2 Neptune Rd,#222,Boston,MA,02128,132336,42.36794149374111,-71.03847338143963,"(42.36794149374111, -71.03847338143963)"
134,V820747,1013,2025-03-04 08:31:33,Open,116,N/A,Unsafe Structures,80,,Tacoma,ST,Hyde Park,MA,02136,18,80 Tacoma St,,Hyde Park,MA,02136,133569,42.267489606961874,-71.11471077698945,"(42.267489606961874, -71.11471077698945)"
135,V820553,1013,2025-03-03 11:42:09,Open,116,N/A,Unsafe Structures,126,128,Gladstone,ST,East Boston,MA,02128,01,469 Revere Beach Boulevard,Building B,Revere,MA,02151,63816,42.38928945153883,-71.00598026033023,"(42.38928945153883, -71.00598026033023)"
136,V820219,1013,2025-02-28 10:11:59,Closed,107.4,N/A,Failed to comply w permit term,124,126,Kenrick,ST,Brighton,MA,02135,22,28 Brooks St,,Brighton,MA,02135,81219,42.34638215370859,-71.168101106148,"(42.34638215370859, -71.168101106148)"
137,V819834,1013,2025-02-26 09:28:30,Closed,105.6,N/A,Suspension or Revocation,16,,Leamington,RD,Brighton,MA,02135,21,36 Montgomery St,,Cambridge,MA,02140,84736,42.342089642057466,-71.14963068840655,"(42.342089642057466, -71.14963068840655)"
138,V819607,1013,2025-02-25 09:57:22,Open,116,N/A,Unsafe Structures,548,,Broadway,,South Boston,MA,02127,06,17 Emerald St,,Quincy,MA,02169,21002,42.3356795004986,-71.04228046176141,"(42.3356795004986, -71.04228046176141)"
139,V818461,1013,2025-02-24 11:48:53,Open,102.8,N/A,Maintenance,3,,Haskell,ST,Allston,MA,02134,22,4 Nichols Street,,Southborough,MA,01772,71083,42.35865961011559,-71.12801060229314,"(42.35865961011559, -71.12801060229314)"
140,V818415,1013,2025-02-24 09:22:55,Open,102.8,N/A,Maintenance,194,,Ninth,ST,South Boston,MA,02127,07,194 West Ninth,,South Boston,MA,02127,102876,42.33341951399546,-71.05255048984614,"(42.33341951399546, -71.05255048984614)"
141,V818410,1013,2025-02-24 09:10:37,Open,102.8,N/A,Maintenance,149,,Saratoga,ST,East Boston,MA,02128,01,149 Saratoga St,,East Boston,MA,02128,122509,42.37706448915747,-71.0347343517526,"(42.37706448915747, -71.0347343517526)"
142,V818406,1013,2025-02-24 08:54:03,Open,102.8,N/A,Maintenance,151,,Saratoga,ST,East Boston,MA,02128,01,60 Border St,,East Boston,MA,02128,122511,42.37708448850359,-71.03467035241974,"(42.37708448850359, -71.03467035241974)"
143,V818402,1013,2025-02-24 08:44:58,Open,105.1,N/A,Failure to Obtain Permit,47,,Russell,ST,Boston,MA,02114,03,3 Newton Executive Park,Suite 106,Newton,MA,02462,119785,42.35983953029,-71.06609046067989,"(42.35983953029, -71.06609046067989)"
144,V818397,1013,2025-02-24 08:27:14,Closed,104.6,N/A,Right of Entry,44,,Pratt,ST,Allston,MA,02134,21,275 Waverly Ave,,Newton,MA,02458,112516,42.35537961026286,-71.12753060848918,"(42.35537961026286, -71.12753060848918)"
145,V817727,1013,2025-02-21 09:09:39,Open,116,N/A,Unsafe Structures,58,,Roslin,ST,Dorchester,MA,02124,17,58 Roslin St,,Dorchester,MA,02124,118611,42.28686953998792,-71.06863062960025,"(42.28686953998792, -71.06863062960025)"
146,V817686,1013,2025-02-21 07:59:05,Open,105.1,N/A,Failure to Obtain Permit,26,,Ridgewood,ST,Dorchester,MA,02122,15,139 SALEM ST,,READING,MA,01667,116005,42.30205953541052,-71.0665205907233,"(42.30205953541052, -71.0665205907233)"
147,V817572,1013,2025-02-20 14:12:20,Open,116,N/A,Unsafe Structures,153,,Saratoga,ST,East Boston,MA,02128,01,60 Border St,,East Boston,MA,02128,122513,42.37710748847814,-71.0346043517418,"(42.37710748847814, -71.0346043517418)"
148,V817567,1013,2025-02-20 14:03:17,Open,116,N/A,Unsafe Structures,151,,Saratoga,ST,East Boston,MA,02128,01,60 Border St,,East Boston,MA,02128,122511,42.37708448850359,-71.03467035241974,"(42.37708448850359, -71.03467035241974)"
149,V817545,1013,2025-02-20 13:31:45,Open,111.1,N/A,Certificate of Occupancy,454,464,Hanover,ST,Boston,MA,02113,03,100 Lovejoy Wharf,Unit 14E,Boston,MA,02114,69182,42.36694951246231,-71.05277341562781,"(42.36694951246231, -71.05277341562781)"
150,V817324,1013,2025-02-20 08:43:06,Open,300.11,N/A,Securing and Supporting,2,4,Tracton,AV,Mattapan,MA,02136,18,2 Tracton Ave,,Hyde Park,MA,02136,136491,42.264489595742035,-71.10629076463958,"(42.264489595742035, -71.10629076463958)"
151,V817324,1013,2025-02-20 08:43:06,Open,110.27,N/A,Guarding of Live parts,2,4,Tracton,AV,Mattapan,MA,02136,18,2 Tracton Ave,,Hyde Park,MA,02136,136491,42.264489595742035,-71.10629076463958,"(42.264489595742035, -71.10629076463958)"
152,V817064,1013,2025-02-19 14:10:53,Open,102.8,N/A,Maintenance,403,405,Shawmut,AV,Roxbury,MA,02118,09,403 SHAWMUT AVE,,BOSTON,MA,02118,126234,42.34057111628045,-71.07340330939502,"(42.34057111628045, -71.07340330939502)"
153,V817082,1013,2025-02-19 14:02:33,Open,901.2,N/A,Fire Protection Systems,413,419,Shawmut,AV,Roxbury,MA,02118,09,419 Shawmut Ave,,Boston,MA,02118,169642,42.34034970456224,-71.07394578902152,"(42.34034970456224, -71.07394578902152)"
154,V816476,1013,2025-02-19 13:58:19,Open,111.1,N/A,Certificate of Occupancy,413,419,Shawmut,AV,Roxbury,MA,02118,09,419 Shawmut Avenue,,Boston,MA,02118,169642,42.34034970456224,-71.07394578902152,"(42.34034970456224, -71.07394578902152)"
155,V815674,1013,2025-02-19 13:55:37,Open,110.7,N/A,Periodic Inspections,413,419,Shawmut,AV,Roxbury,MA,02118,09,419 Shawmut Ave,,Boston,MA,02118,169642,42.34034970456224,-71.07394578902152,"(42.34034970456224, -71.07394578902152)"
156,V817062,1013,2025-02-19 13:33:21,Closed,102.8,N/A,Maintenance,56,,River,ST,Boston,MA,02108,05,17 LOCKELAND RD,,WINCHESTER,MA,01890,116213,42.35750953607877,-71.07080047722503,"(42.35750953607877, -71.07080047722503)"
157,V816959,1013,2025-02-19 09:44:09,Closed,105.1,N/A,Failure to Obtain Permit,2,4,Boulevard,TE,Brighton,MA,02134,21,2 Boulevard Terr,,Allston,MA,02134,17244,42.34677962647516,-71.13886965417714,"(42.34677962647516, -71.13886965417714)"
158,V816953,1013,2025-02-19 09:36:38,Closed,102.8,N/A,Maintenance,2,4,Boulevard,TE,Brighton,MA,02134,21,2 Boulevard Terr,,Allston,MA,02134,17244,42.34677962647516,-71.13886965417714,"(42.34677962647516, -71.13886965417714)"
159,V816942,1013,2025-02-19 09:27:51,Open,102.8,N/A,Maintenance,124,,Park,ST,Dorchester,MA,02122,16,66 Canal ST,,Boston,MA,02114,107288,42.29868952672635,-71.05983058332603,"(42.29868952672635, -71.05983058332603)"
160,V816939,1013,2025-02-19 09:11:50,Open,102.8,N/A,Maintenance,26,,Shafter,ST,Dorchester,MA,02121,14,26 Shafter St q,,Dorchester,MA,02121,125897,42.29960955050461,-71.07733062076893,"(42.29960955050461, -71.07733062076893)"
161,V816919,1013,2025-02-19 08:41:48,Open,102.8,N/A,Maintenance,26,,Monponset,ST,Mattapan,MA,02136,18,31 Massasoit St,,Hyde Park,MA,02136,96426,42.263609585637454,-71.09938075155385,"(42.263609585637454, -71.09938075155385)"
162,V816908,1013,2025-02-19 08:36:47,Open,105.1,N/A,Failure to Obtain Permit,1509,1517,Blue Hill,AV,Mattapan,MA,02126,18,17 BROOK RD,,MILTON,MA,02186,16298,42.27237957706929,-71.09389071876852,"(42.27237957706929, -71.09389071876852)"
163,V816907,1013,2025-02-19 08:31:48,Open,105.1,N/A,Failure to Obtain Permit,26,,Shafter,ST,Dorchester,MA,02121,14,26 Shafter St,,Dorchester,MA,02121,125897,42.29960955050461,-71.07733062076893,"(42.29960955050461, -71.07733062076893)"
164,V816475,1013,2025-02-18 10:21:11,Open,903.5,N/A,Fire Protection Systems,413,419,Shawmut,AV,Roxbury,MA,02118,09,419 SHAWMUT AVE,,BOSTON,MA,02118,169642,42.34034970456224,-71.07394578902152,"(42.34034970456224, -71.07394578902152)"
165,V816457,1013,2025-02-18 08:46:37,Open,102.8,N/A,Maintenance,11,,Burrill,PL,South Boston,MA,02127,07,11 Burrill PL,,South Boston,MA,02127,23992,42.332599498507534,-71.0404504636779,"(42.332599498507534, -71.0404504636779)"
166,V815694,1013,2025-02-14 09:44:07,Open,105.1,N/A,Failure to Obtain Permit,23,,East,ST,Dorchester,MA,02122,15,23 East St,APT #1,Dorchester,MA,02122,50807,42.30775952537056,-71.05946056221295,"(42.30775952537056, -71.05946056221295)"
167,V815679,1013,2025-02-14 08:42:48,Open,104.6,N/A,Right of Entry,270,,Parsons,ST,Brighton,MA,02135,22,500 Lincoln St,2nd Floor,Allston,MA,02134,108337,42.35806964957892,-71.1585206731858,"(42.35806964957892, -71.1585206731858)"
168,V815642,1013,2025-02-13 15:30:01,Open,116,N/A,Unsafe Structures,59,,Woolson,ST,Mattapan,MA,02126,14,59 WOOLSON ST,,MATTAPAN,MA,02126,152151,42.28093956938372,-71.08923068888193,"(42.28093956938372, -71.08923068888193)"
169,V795851,1013,2025-02-13 08:14:00,Open,105.1,N/A,Failure to Obtain Permit,543,,Massachusetts,AV,Roxbury,MA,02118,09,543 Massachusetts Ave,,Boston,MA,02118,92356,42.33805955013132,-71.0797005403553,"(42.33805955013132, -71.0797005403553)"
170,V800906,1013,2025-02-13 08:13:15,Open,1009.1,N/A,Accessible Means of Egress,200,,Northampton,ST,Roxbury,MA,02118,09,200 Northampton Unit 5,,Boston,MA,02118,168255,42.337636461606316,-71.0798644957233,"(42.337636461606316, -71.0798644957233)"
171,V814146,1013,2025-02-12 09:27:00,Open,102.8,N/A,Maintenance,1509,1517,Blue Hill,AV,Mattapan,MA,02126,18,17 Brook Rd,,Milton,MA,02186,16298,42.27237957706929,-71.09389071876852,"(42.27237957706929, -71.09389071876852)"
172,V815295,1013,2025-02-12 08:41:47,Open,105.1,N/A,Failure to Obtain Permit,922,,Canterbury,ST,Roslindale,MA,02131,18,126 COMMONWEALTH AV,,DEDHAM,MA,02026,25538,42.27897960699359,-71.11596075443885,"(42.27897960699359, -71.11596075443885)"
173,V815283,1013,2025-02-12 08:07:06,Closed,116,N/A,Unsafe Structures,43,,Woolson,ST,Mattapan,MA,02126,14,84 Bess Road,,Needham,MA,02492,152140,42.28131957023638,-71.09012069132322,"(42.28131957023638, -71.09012069132322)"
174,V755522,1013,2025-02-11 12:13:46,Open,1001.3.2,N/A,Testing & Certification,1273,,Massachusetts,AV,Dorchester,MA,02125,07,119 Belgrade Ave,,Roslindale,MA,02131,91955,42.32135952831996,-71.06256053855205,"(42.32135952831996, -71.06256053855205)"
175,V815076,1013,2025-02-11 10:39:39,Open,102.8,N/A,Maintenance,15,,Everdean,ST,Dorchester,MA,02122,16,15 Everdean ST,,DORCHESTER,MA,02122,54890,42.30086951407573,-71.05094055868085,"(42.30086951407573, -71.05094055868085)"
176,V814118,1013,2025-02-07 10:25:12,Open,105.1,N/A,Failure to Obtain Permit,190,,Springfield,ST,Roxbury,MA,02118,09,190 W Springfield St,,Boston,MA,02118,129941,42.3399395506349,-71.0801005364918,"(42.3399395506349, -71.0801005364918)"
177,V814112,1013,2025-02-07 09:59:12,Open,107.4,N/A,Failed to comply w permit term,7,11,Curtis,ST,East Boston,MA,02128,01,12 Ericsson St,,Dorchester,MA,02122,45103,42.38296957347659,-71.02091692202423,"(42.38296957347659, -71.02091692202423)"
178,V814101,1013,2025-02-07 09:16:46,Open,102.8,N/A,Maintenance,36,,Akron,ST,Roxbury,MA,02119,12,22 Broad St,,Lynn,MA,01902,1277,42.32556353090772,-71.08451585242899,"(42.32556353090772, -71.08451585242899)"
179,V814097,1013,2025-02-07 09:06:46,Open,102.8,N/A,Maintenance,196,198,Lexington,ST,East Boston,MA,02128,01,272 Broadway,,Malden,MA,02148,85572,42.37963948611265,-71.03276034298399,"(42.37963948611265, -71.03276034298399)"
180,V773712,1013,2025-02-05 13:06:27,Open,116,N/A,Unsafe Structures,123,127,Heath,ST,Mission Hill,MA,02120,10,181 DUDLEY RD,,NEWTON,MA,02459,72313,42.32657658327249,-71.10343561925626,"(42.32657658327249, -71.10343561925626)"
181,V773698,1013,2025-02-05 13:04:02,Open,116,N/A,Unsafe Structures,117,,Heath,ST,Mission Hill,MA,02120,10,181 DUDLEY RD,,NEWTON,MA,02459,72312,42.32657858275778,-71.10294861814144,"(42.32657858275778, -71.10294861814144)"
182,V813671,1013,2025-02-05 08:33:56,Open,Article 4 Section 4-3,N/A,No use of premises permit:,1181,,Dorchester,AV,Dorchester,MA,02125,15,98 SYDNEY ST,,DORCHESTER,MA,02125,48245,42.310438949810575,-71.05805630013161,"(42.310438949810575, -71.05805630013161)"
183,V764487,1013,2025-02-04 15:21:58,Open,105.1,N/A,Failure to Obtain Permit,1,,Westinghouse,PZ,Hyde Park,MA,02136,18,1 WESTINGHOUSE PLAZA SUITE D157,,HYDE  PARK,MA,02136,437247,42.24709424857129,-71.13082852136478,"(42.24709424857129, -71.13082852136478)"
184,V794612,1013,2025-02-04 14:29:20,Open,105.1,N/A,Failure to Obtain Permit,108,,Minden,ST,Jamaica Plain,MA,02130,10,108 MINDEN ST #,,JAMAICA PLAIN,MA,02130,167738,42.32499326034714,-71.10557288841412,"(42.32499326034714, -71.10557288841412)"
185,V813454,1013,2025-02-04 09:33:30,Open,3307.1,N/A,Protection of Adj. Property,4,6,Springfield,ST,Roxbury,MA,02118,08,275 Main St,,Boston,MA,02129,129852,42.33682454493131,-71.07591753446158,"(42.33682454493131, -71.07591753446158)"
186,V813421,1013,2025-02-04 08:34:06,Closed,115.3,N/A,Unlawful Continuance,110,,Saint Botolph,ST,Boston,MA,02115,04,275 Washington St,Suite 400,Newton,MA,02458,120629,42.34438955159917,-71.08113052957886,"(42.34438955159917, -71.08113052957886)"
187,V813417,1013,2025-02-04 08:30:07,Closed,105.1,N/A,Failure to Obtain Permit,19,,Bodwell,ST,Dorchester,MA,02125,15,40 HANCOCK STREET,,DORCHESTER,MA,02125,16713,42.312859539299005,-71.06997057382742,"(42.312859539299005, -71.06997057382742)"
188,V813413,1013,2025-02-04 08:21:52,Closed,107.4,N/A,Failed to comply w permit term,110,,Saint Botolph,ST,Boston,MA,02115,04,275 Washington St,Suite 400,Newton,MA,02458,120629,42.34438955159917,-71.08113052957886,"(42.34438955159917, -71.08113052957886)"
189,V813143,1013,2025-02-03 15:02:17,Open,105.1,N/A,Failure to Obtain Permit,5,,Holiday,ST,Dorchester,MA,02124,15,5 HOLIDAY ST,C/O SALMA CLARK TS,DORCHESTER,MA,02122,74606,42.301729542525685,-71.0714806029862,"(42.301729542525685, -71.0714806029862)"
190,V813203,1013,2025-02-03 12:01:50,Open,105.1,N/A,Failure to Obtain Permit,47,,Condor,ST,East Boston,MA,02128,01,"45 West 3rd St, APT # 313",,Boston,MA,02127,42049,42.38246649865808,-71.03848217056357,"(42.38246649865808, -71.03848217056357)"
191,V813151,1013,2025-02-03 10:45:50,Open,Article 4 Section 4-3,N/A,No use of premises permit:,18,,Baker,AV,Dorchester,MA,02125,15,18 Baker Ave,,Dorchester,MA,02125,7601,42.312549540839946,-71.07094057823413,"(42.312549540839946, -71.07094057823413)"
192,V813145,1013,2025-02-03 10:26:33,Open,105.1,N/A,Failure to Obtain Permit,230,,Canton,ST,Boston,MA,02116,04,230 West Canton,,Boston,MA,02116,25743,42.34542954645778,-71.07770051910484,"(42.34542954645778, -71.07770051910484)"
193,V813140,1013,2025-02-03 10:04:13,Open,105.1,N/A,Failure to Obtain Permit,18,,Baker,AV,Dorchester,MA,02125,15,18 Baker Ave,,Dorchester,MA,02125,7601,42.312549540839946,-71.07094057823413,"(42.312549540839946, -71.07094057823413)"
194,V812306,1013,2025-02-03 09:23:06,Closed,102.8,N/A,Maintenance,805,,Huntington,AV,Boston,MA,02115,10,835 Huntington Avenue,,Boston,MA,02115,166440,42.33361660122945,-71.10803546010999,"(42.33361660122945, -71.10803546010999)"
195,V813133,1013,2025-02-03 09:16:15,Open,Article 4 Section 4-3,N/A,No use of premises permit:,12,,Wilcock,ST,Dorchester,MA,02124,14,11 Wilcock St,#2,Dorchester,MA,02124,460046,42.28648573615607,-71.09145764477746,"(42.28648573615607, -71.09145764477746)"
196,V800219,1013,2025-01-31 14:10:51,Open,1001.3.2,N/A,Testing & Certification,220,,Northampton,ST,Roxbury,MA,02118,09,792 Tremont St,,BOSTON,MA,02118,103718,42.338059551158224,-71.08040054222252,"(42.338059551158224, -71.08040054222252)"
197,V800233,1013,2025-01-31 14:09:39,Open,1001.3.2,N/A,Testing & Certification,224,,Northampton,ST,Roxbury,MA,02118,09,792 TREMONT ST.,,BOSTON,MA,02118,103720,42.338139550769206,-71.08050054210025,"(42.338139550769206, -71.08050054210025)"
198,V800225,1013,2025-01-31 14:05:58,Closed,1001.3.2,N/A,Testing & Certification,222,,Northampton,ST,Roxbury,MA,02118,09,222 NORTHAMPTON ST UNIT #1,,BOSTON,MA,02118,103719,42.33809955097477,-71.08045054212977,"(42.33809955097477, -71.08045054212977)"
199,V800211,1013,2025-01-31 14:02:59,Open,1001.3.2,N/A,Testing & Certification,218,,Northampton,ST,Roxbury,MA,02118,09,218 NORTHAMPTON STREET #1,,ROXBURY,MA,02118,103717,42.3380095512544,-71.08034054160926,"(42.3380095512544, -71.08034054160926)"
200,V800206,1013,2025-01-31 14:01:31,Open,1001.3.2,N/A,Testing & Certification,216,,Northampton,ST,Roxbury,MA,02118,09,792 TREMONT STREET,,BOSTON,MA,02118,103716,42.337969551389236,-71.08029054184264,"(42.337969551389236, -71.08029054184264)"
201,V800203,1013,2025-01-31 14:00:06,Open,1001.3.2,N/A,Testing & Certification,214,,Northampton,ST,Roxbury,MA,02118,09,214 NORTHAMPTON ST UNIT #1,,BOSTON,MA,02118,103712,42.33792955060172,-71.08024054214513,"(42.33792955060172, -71.08024054214513)"
202,V800198,1013,2025-01-31 13:58:58,Open,1001.3.2,N/A,Testing & Certification,210,212,Northampton,ST,Roxbury,MA,02118,09,792 TREMONT STREET,,BOSTON,MA,02118,350908,42.33787255563389,-71.08015450066631,"(42.33787255563389, -71.08015450066631)"
203,V812787,1013,2025-01-30 14:22:29,Open,1006.1,N/A,Number of Exits or Exit Access,24,,Amherst,ST,Roslindale,MA,02131,20,24 AMHERST ST,,ROSLINDALE,MA,02131,3227,42.28594962829029,-71.13195077455501,"(42.28594962829029, -71.13195077455501)"
204,V812784,1013,2025-01-30 13:55:23,Open,102.8,N/A,Maintenance,24,,Amherst,ST,Roslindale,MA,02131,20,24 AMHERST ST,,ROSLINDALE,MA,02131,3227,42.28594962829029,-71.13195077455501,"(42.28594962829029, -71.13195077455501)"
205,V812263,1013,2025-01-29 13:46:33,Closed,105.1,N/A,Failure to Obtain Permit,48,,Beach,ST,Boston,MA,02111,03,48 Beach St,,Boston,MA,02111,9391,42.351549523903756,-71.06079046800429,"(42.351549523903756, -71.06079046800429)"
206,V812363,1013,2025-01-28 14:48:53,Open,102.8,N/A,Maintenance,185,,Washington,ST,Brighton,MA,02135,21,500 BOYLSTON ST  5TH FLOOR,C/O STEWARD HEALTH CARE,BOSTON,MA,02116,422975,42.34727808654101,-71.14630375886311,"(42.34727808654101, -71.14630375886311)"
207,V812353,1013,2025-01-28 14:41:14,Open,102.8,N/A,Maintenance,3,,Haskell,ST,Allston,MA,02134,22,5 Russell's Way,,Westford,MA,01886,71083,42.35865961011559,-71.12801060229314,"(42.35865961011559, -71.12801060229314)"
208,V812334,1013,2025-01-28 13:09:29,Open,105.6,N/A,Suspension or Revocation,147,,West,ST,Hyde Park,MA,02136,18,749 Hyde Park Ave,,Roslindale,MA,02131,147887,42.26225961844809,-71.12258080656382,"(42.26225961844809, -71.12258080656382)"
209,V812329,1013,2025-01-28 12:39:43,Open,105.1,N/A,Failure to Obtain Permit,1,3,Locust,ST,Mattapan,MA,02136,18,1-3 LOCUST ST,,HYDE PARK,MA,02136,172612,42.26582618615236,-71.10683564686883,"(42.26582618615236, -71.10683564686883)"
210,V812312,1013,2025-01-28 11:54:00,Closed,102.8,N/A,Maintenance,339,,Bowdoin,ST,Dorchester,MA,02122,15,339 Bowdoin St,,Dorchester,MA,02122,17720,42.30880953108495,-71.06382057022591,"(42.30880953108495, -71.06382057022591)"
211,V812302,1013,2025-01-28 11:23:12,Closed,102.8,N/A,Maintenance,167,,Woodrow,AV,Dorchester,MA,02124,14,167 Woodrow Ave,,Dorchester,MA,02124,151859,42.28674956447999,-71.08649067094285,"(42.28674956447999, -71.08649067094285)"
212,V812296,1013,2025-01-28 11:09:34,Open,102.8,N/A,Maintenance,100,102,Brookline,AV,Boston,MA,02215,05,19 JERSEY STREET,,BOSTON,MA,02115,22077,42.34599957530555,-71.09941056693906,"(42.34599957530555, -71.09941056693906)"
213,V744446,1013,2025-01-28 07:52:51,Open,107.4,N/A,Failed to comply w permit term,10,,Itasca,ST,Mattapan,MA,02126,18,71 AMOR RD,,MILTON,MA,02186,79084,42.27828958029053,-71.09691071336178,"(42.27828958029053, -71.09691071336178)"
214,V776463,1013,2025-01-27 14:35:55,Open,102.8,N/A,Maintenance,7,,Vesper,ST,West Roxbury,MA,02132,20,7 VESPER STREET,,WEST ROXBURY,MA,02132,154912,42.29093966752417,-71.1609908287302,"(42.29093966752417, -71.1609908287302)"
215,V803025,1013,2025-01-27 14:20:26,Closed,706.1.1,N/A,Party Walls,7,,Willow,ST,Boston,MA,02108,05,233 Rumstick Rd,,Barrington,RI,02806,150206,42.357639533634625,-71.06825047141771,"(42.357639533634625, -71.06825047141771)"
216,V811611,1013,2025-01-24 11:38:13,Open,105.1,N/A,Failure to Obtain Permit,29,31,Fayston,ST,Dorchester,MA,02121,14,39 LINCOLN WAY,UNIT 39,CAMBRIDGE,MA,02140,57049,42.31313655006173,-71.07770459094245,"(42.31313655006173, -71.07770459094245)"
217,V811609,1013,2025-01-24 11:31:00,Open,105.1,N/A,Failure to Obtain Permit,29,31,Fayston,ST,Dorchester,MA,02121,14,39 LINCOLN WAY,UNIT 39,CAMBRIDGE,MA,02140,57049,42.31313655006173,-71.07770459094245,"(42.31313655006173, -71.07770459094245)"
218,V810786,1013,2025-01-21 15:21:01,Open,105.1,N/A,Failure to Obtain Permit,20,,Richfield,ST,Dorchester,MA,02125,15,20 RICHFIELD ST,,DORCHESTER,MA,02125,115649,42.30846954210906,-71.0717805884676,"(42.30846954210906, -71.0717805884676)"
219,V778255,1013,2025-01-21 15:07:17,Open,105.1,N/A,Failure to Obtain Permit,61,,Forest,ST,Roxbury,MA,02119,08,61 FOREST ST,,ROXBURY,MA,02119,59316,42.32575954778331,-71.07662056165044,"(42.32575954778331, -71.07662056165044)"
220,V810766,1013,2025-01-21 14:33:24,Open,102.8,N/A,Maintenance,774,774A,Dudley,ST,Dorchester,MA,02125,07,71 Arrowhead Rd,,Weston,MA,02193,49847,42.317567533536774,-71.06573055448656,"(42.317567533536774, -71.06573055448656)"
221,V795871,1013,2025-01-21 12:50:03,Open,102.8,N/A,Maintenance,610,610A,Shawmut,AV,Roxbury,MA,02118,09,610 SHAWMUT AV,C/O ROXBURY MENS CLUB,BOSTON,MA,02119,126449,42.33554955146442,-71.0803305469314,"(42.33554955146442, -71.0803305469314)"
222,V749446,1013,2025-01-21 10:54:52,Open,102.8,N/A,Maintenance,8,,Sachem,ST,Mission Hill,MA,02120,10,8 SACHEM ST,,ROXBURY,MA,02120,120364,42.33148958425589,-71.10475061151323,"(42.33148958425589, -71.10475061151323)"
223,V808697,1013,2025-01-21 09:57:00,Open,105.1,N/A,Failure to Obtain Permit,888, ,Morton,ST,Mattapan,MA,02126,17,619 Centre Street,,Jamaica Plain,MA,02130,,,,
224,V810619,1013,2025-01-21 09:47:59,Open,102.8,N/A,Maintenance,53,,Van Brunt,ST,Hyde Park,MA,02136,18,53 Van Brunt St,,Hyde Park,MA,02136,139773,42.24128966530169,-71.12345084433287,"(42.24128966530169, -71.12345084433287)"
225,V755209,1013,2025-01-21 09:42:43,Open,116,N/A,Unsafe Structures,179,,Dana,AV,Hyde Park,MA,02136,18,179 DANA AV,,HYDE PARK,MA,02136,45920,42.2467396328151,-71.1193108289895,"(42.2467396328151, -71.1193108289895)"
226,V768275,1013,2025-01-21 09:41:05,Closed,111.1,N/A,Certificate of Occupancy,141,,Second,ST,South Boston,MA,02127,06,11 ELKINS ST SUIT#240,,S BOSTON,MA,02127,124567,42.34209655200942,-71.05272450497303,"(42.34209655200942, -71.05272450497303)"
227,V810600,1013,2025-01-21 09:22:25,Open,102.8,N/A,Maintenance,72,,Prescott,ST,East Boston,MA,02128,01,80 Border St,,Boston,MA,02128,112628,42.37876548231454,-71.02942833667544,"(42.37876548231454, -71.02942833667544)"
228,V810590,1013,2025-01-21 09:07:03,Open,102.8,N/A,Maintenance,84,,Wenham,ST,Jamaica Plain,MA,02130,19,84 Wenham Unit 2,,Boston,MA,02130,147718,42.29799960122148,-71.11373070563302,"(42.29799960122148, -71.11373070563302)"
229,V810581,1013,2025-01-21 08:53:30,Open,116,N/A,Unsafe Structures,74,,Prescott,ST,East Boston,MA,02128,01,771 East 4th ST,,Boston,MA,02127,112629,42.37871548139164,-71.02938833666082,"(42.37871548139164, -71.02938833666082)"
230,V810570,1013,2025-01-21 08:36:12,Open,105.1,N/A,Failure to Obtain Permit,74,,Prescott,ST,East Boston,MA,02128,01,771 East 4h St,,Boston,MA,02127,112629,42.37871548139164,-71.02938833666082,"(42.37871548139164, -71.02938833666082)"
231,V810560,1013,2025-01-21 08:21:10,Open,102.8,N/A,Maintenance,74,,Prescott,ST,East Boston,MA,02128,01,771 East 4th ST,,Boston,MA,02127,112629,42.37871548139164,-71.02938833666082,"(42.37871548139164, -71.02938833666082)"
232,V810033,1013,2025-01-17 09:40:58,Open,105.1,N/A,Failure to Obtain Permit,62,,Lyndhurst,ST,Dorchester,MA,02124,17,62 Lyndhurst Street,Unit 1,Dorchester,MA,02124,87889,42.29322954013083,-71.06912061654516,"(42.29322954013083, -71.06912061654516)"
233,V810027,1013,2025-01-17 09:31:16,Open,111.1,N/A,Certificate of Occupancy,280,282,Sumner,ST,East Boston,MA,02128,01,"470 West Broadway, Suite 204",,South Boston,MA,02127,132362,42.36793949231989,-71.0371603781137,"(42.36793949231989, -71.0371603781137)"
234,V809954,1013,2025-01-16 15:20:17,Closed,907.8,N/A,Fire Protection Systems,120,,Brookline,AV,Boston,MA,02215,05,126 Brookline Ave,,Boston,MA,02215,22081,42.34558957600777,-71.09985056920307,"(42.34558957600777, -71.09985056920307)"
235,V809956,1013,2025-01-16 14:47:11,Open,102.8,N/A,Maintenance,25,,Bradlee,ST,Dorchester,MA,02124,17,25 BRADLEE ST,,DORCHESTER,MA,02124,19089,42.29730954670588,-71.07409061840397,"(42.29730954670588, -71.07409061840397)"
236,V809946,1013,2025-01-16 14:27:40,Open,105.1,N/A,Failure to Obtain Permit,25,27,Edinboro,ST,Boston,MA,02111,03,161 WEBSTER ST,,NEEDHAM,MA,02494,51253,42.35167952242063,-71.0598604652875,"(42.35167952242063, -71.0598604652875)"
237,V809944,1013,2025-01-16 14:25:10,Closed,1001.3.2,N/A,Testing & Certification,18,,Hull,ST,Boston,MA,02113,03,79 Prince St,,Boston,MA,02113,75908,42.36657951551003,-71.05554042188916,"(42.36657951551003, -71.05554042188916)"
238,V809939,1013,2025-01-16 14:15:59,Open,1001.3.2,N/A,Testing & Certification,84,86A,Harrison,AV,Boston,MA,02111,03,84 HARRISON AV,,BOSTON,MA,02111,439615,42.35077065113673,-71.06123588980508,"(42.35077065113673, -71.06123588980508)"
239,V809926,1013,2025-01-16 14:04:59,Open,903.5,N/A,Fire Protection Systems,84,86A,Harrison,AV,Boston,MA,02111,03,84 HARRISON AV,,BOSTON,MA,02111,439615,42.35077065113673,-71.06123588980508,"(42.35077065113673, -71.06123588980508)"
240,V809741,1013,2025-01-15 15:32:58,Open,110.7,N/A,Periodic Inspections,84,86A,Harrison,AV,Boston,MA,02111,03,84 HARRISON AV,,BOSTON,MA,02111,439615,42.35077065113673,-71.06123588980508,"(42.35077065113673, -71.06123588980508)"
241,V809694,1013,2025-01-15 12:15:38,Open,105.1,N/A,Failure to Obtain Permit,147,,West,ST,Hyde Park,MA,02136,18,749 Hyde Park Ave,,Roslindale,MA,02131,147887,42.26225961844809,-71.12258080656382,"(42.26225961844809, -71.12258080656382)"
242,V755660,1013,2025-01-15 11:56:22,Open,1001.3.2,N/A,Testing & Certification,595,,Sixth,ST,South Boston,MA,02127,07,917 EAST BROADWAY,,SOUTH BOSTON,MA,02127,127663,42.33297949383922,-71.03664045533948,"(42.33297949383922, -71.03664045533948)"
243,V809406,1013,2025-01-15 10:21:51,Open,1006.1,N/A,Number of Exits or Exit Access,173,,Delhi,ST,Mattapan,MA,02126,18,173 Delhi st,,Mattapan,Ma,02126,47132,42.275909571495234,-71.09006070329025,"(42.275909571495234, -71.09006070329025)"
244,V795813,1013,2025-01-15 10:14:00,Open,105.1,N/A,Failure to Obtain Permit,147,,West,ST,Hyde Park,MA,02136,18,749 Hyde Park Ave,,Roslindale,MA,02131,147887,42.26225961844809,-71.12258080656382,"(42.26225961844809, -71.12258080656382)"
245,V625899,1013,2025-01-15 09:53:08,Open,116,N/A,Unsafe Structures,2,,Austin,ST,Hyde Park,MA,02136,18,2 AUSTIN ST,,HYDE PARK,MA,02136,6731,42.257509626327995,-71.12680082612967,"(42.257509626327995, -71.12680082612967)"
246,V779251,1013,2025-01-15 09:51:39,Open,105.1,N/A,Failure to Obtain Permit,606,,American Legion,HW,Roslindale,MA,02131,18,24 DOANE RD,,MEDFORD,MA,02155,3168,42.285739596938924,-71.10956072458426,"(42.285739596938924, -71.10956072458426)"
247,V616080,1013,2025-01-15 09:50:32,Open,116,N/A,Unsafe Structures,1414,,Blue Hill,AV,Mattapan,MA,02126,18,619 CUMMINS HWY,,HYDE PARK,MA,02136,16266,42.275819575181664,-71.09315071008348,"(42.275819575181664, -71.09315071008348)"
248,V758299,1013,2025-01-15 09:49:14,Closed,107.4,N/A,Failed to comply w permit term,27,,Leroy,ST,Dorchester,MA,02122,15,27 LEROY ST,,DORCHESTER,MA,02122,85195,42.30095953353391,-71.06471058932426,"(42.30095953353391, -71.06471058932426)"
249,V799405,1013,2025-01-15 09:47:21,Open,105,N/A,Permits,71,,Astoria,ST,Mattapan,MA,02126,18,71 Astoria St,,Boston,MA,02126,5648,42.2792395678359,-71.08814069067168,"(42.2792395678359, -71.08814069067168)"
250,V749732,1013,2025-01-15 08:39:13,Open,105.1,N/A,Failure to Obtain Permit,35,,Belnel,RD,Mattapan,MA,02126,18,35 BELNEL RD,,HYDE PARK,MA,02136,14226,42.26195959370234,-71.10443076592202,"(42.26195959370234, -71.10443076592202)"
251,V809622,1013,2025-01-15 08:37:30,Closed,105.1,N/A,Failure to Obtain Permit,29,31,Fayston,ST,Dorchester,MA,02121,14,29 Fayston St,,Dorchester,MA,02121,57049,42.31313655006173,-71.07770459094245,"(42.31313655006173, -71.07770459094245)"
252,V803511,1013,2025-01-14 10:16:49,Open,105.1,N/A,Failure to Obtain Permit,41,,Messinger,ST,Mattapan,MA,02126,18,41 Messinger,,Mattapan,MA,02126,94729,42.27351958399392,-71.09933072876318,"(42.27351958399392, -71.09933072876318)"
253,V751038,1013,2025-01-14 09:55:56,Closed,1006.1,N/A,Number of Exits or Exit Access,1633,1639,Blue Hill,AV,Mattapan,MA,02126,18,1340 CENTRE STREET #101,,NEWTON,MA,02459,16340,42.26826957703203,-71.09413072874563,"(42.26826957703203, -71.09413072874563)"
254,V809072,1013,2025-01-13 10:38:31,Open,116,N/A,Unsafe Structures,400,,Dorchester,AV,South Boston,MA,02127,07,c/o Dave Winick,202 West Broadway St,South Boston,MA,02127,48590,42.33488334016897,-71.0564046784689,"(42.33488334016897, -71.0564046784689)"
255,V808632,1013,2025-01-10 08:13:18,Closed,314.28,N/A,Pull & Junction Boxes,14,16,Wakullah,ST,Roxbury,MA,02119,12,74 Summer St,,Hyde Park,MA,02136,141353,42.32231956055151,-71.08612059073172,"(42.32231956055151, -71.08612059073172)"
256,V808632,1013,2025-01-10 08:13:18,Closed,230.85,N/A,Emergency Disconnects,14,16,Wakullah,ST,Roxbury,MA,02119,12,74 Summer St,,Hyde Park,MA,02136,141353,42.32231956055151,-71.08612059073172,"(42.32231956055151, -71.08612059073172)"
257,V808503,1013,2025-01-09 09:12:22,Open,107.4,N/A,Failed to comply w permit term,5205,,Washington,ST,West Roxbury,MA,02132,20,36 Remar Ave,,Wapole,MA,02081,145662,42.26125825826538,-71.15749316221175,"(42.26125825826538, -71.15749316221175)"
258,V808500,1013,2025-01-09 09:03:33,Closed,102.8,N/A,Maintenance,18,,Hull,ST,Boston,MA,02113,03,79 Prince St,,Boston,MA,02113,75908,42.36657951551003,-71.05554042188916,"(42.36657951551003, -71.05554042188916)"
259,V808497,1013,2025-01-09 08:55:48,Closed,907.8,N/A,Fire Protection Systems,18,,Hull,ST,Boston,MA,02113,03,79 Prince St,,Boston,MA,02113,75908,42.36657951551003,-71.05554042188916,"(42.36657951551003, -71.05554042188916)"
260,V808315,1013,2025-01-08 11:35:57,Open,102.8,N/A,Maintenance,40,44,Harrison,AV,Boston,MA,02111,03,33 HARRISON AV # 601,C/O BEACH STREET MGT,BOSTON,MA,02111,340723,42.35159938116215,-71.0609966937615,"(42.35159938116215, -71.0609966937615)"
261,V808310,1013,2025-01-08 11:14:29,Open,102.8,N/A,Maintenance,5,,Middleton,ST,Dorchester,MA,02124,14,393 Norfolk,,Dorchester,MA,02124,95257,42.28271556518291,-71.0861946791125,"(42.28271556518291, -71.0861946791125)"
262,V808302,1013,2025-01-08 10:46:54,Open,102.8,N/A,Maintenance,65,,Cornell,ST,Roslindale,MA,02131,18,65 Cornell St,,Roslindale,MA,02131,43062,42.276389627769895,-71.13055079230239,"(42.276389627769895, -71.13055079230239)"
263,V808292,1013,2025-01-08 10:34:35,Closed,102.8,N/A,Maintenance,24,44,Kneeland,ST,Boston,MA,02111,03,30 Kneeland St,,Boston,MA,02111,166795,42.35084974788222,-71.06183771266038,"(42.35084974788222, -71.06183771266038)"
264,V808280,1013,2025-01-08 09:33:55,Closed,102.8,N/A,Maintenance,412,416,Market,ST,Brighton,MA,02135,22,33 KENWOOD,,BROOKLINE,MA,02446,158007,42.34945201909794,-71.15314110366546,"(42.34945201909794, -71.15314110366546)"
265,V808135,1013,2025-01-07 15:37:20,Open,10.11,N/A,Hangers & Supports,2,,Aramon,ST,East Boston,MA,02128,01,2 Aramon Street,Unit 2,East Boston,MA,02128,4213,42.36620548427929,-71.03112936803272,"(42.36620548427929, -71.03112936803272)"
266,V808135,1013,2025-01-07 15:37:20,Open,10.14(b),N/A,Water Supply & the Water Distribution System,2,,Aramon,ST,East Boston,MA,02128,01,2 Aramon Street,Unit 2,East Boston,MA,02128,4213,42.36620548427929,-71.03112936803272,"(42.36620548427929, -71.03112936803272)"
267,V807581,1013,2025-01-03 13:53:53,Closed,102.8,N/A,Maintenance,52,,Union,PK,Roxbury,MA,02118,03,7 Sumac Lane,,Sharon,MA,02067,170690,42.34336698024409,-71.07232319371792,"(42.34336698024409, -71.07232319371792)"
268,V753528,1013,2025-01-03 10:59:52,Open,1001.3.3,N/A,,23,,Monument,AV,Charlestown,MA,02129,02,23 MONUMENT AV,,CHARLESTOWN,MA,02129,96860,42.37432952317994,-71.06194641923304,"(42.37432952317994, -71.06194641923304)"
269,V753529,1013,2025-01-03 10:58:47,Open,1001.3.3,N/A,,21,,Monument,AV,Charlestown,MA,02129,02,21 MONUMENT AV,,CHARLESTOWN,MA,02129,276927,42.37427952380194,-71.06198041926817,"(42.37427952380194, -71.06198041926817)"
270,V737906,1013,2025-01-03 10:57:21,Open,1001.3.2,N/A,Testing & Certification,76,,Brookline,ST,Roxbury,MA,02118,08,45 L St,,South Boston,MA,02127,22160,42.33777953784754,-71.07004051926593,"(42.33777953784754, -71.07004051926593)"
271,V807507,1013,2025-01-02 15:20:24,Closed,1001.3.2,N/A,Testing & Certification,6,,Johnny,CT,Boston,MA,02111,03,5 TRINITY ROAD,,WINCHESTER,MA,01890,79889,42.347859527732325,-71.06322048138941,"(42.347859527732325, -71.06322048138941)"
272,V807444,1013,2025-01-02 08:40:20,Open,107.4,N/A,Failed to comply w permit term,17,23,Beach,ST,Boston,MA,02111,03,400 SOUTH AVE,,WESTON,MA,02493,161858,42.35131339124589,-71.06199558776353,"(42.35131339124589, -71.06199558776353)"
273,V762114,1013,2024-12-31 10:59:36,Open,102.8,N/A,Maintenance,14,,Mount Calvary,RD,Roslindale,MA,02131,18,14 MT CALVARY RD,,ROSLINDALE,MA,02131,98107,42.28086960340802,-71.11314074390258,"(42.28086960340802, -71.11314074390258)"
274,V760019,1013,2024-12-31 10:46:19,Open,105.1,N/A,Failure to Obtain Permit,614,,Massachusetts,AV,Roxbury,MA,02118,09,64 Parker St,,Newton,MA,02459,92493,42.33719954706552,-71.07745053724503,"(42.33719954706552, -71.07745053724503)"
275,V807184,1013,2024-12-30 10:19:11,Closed,102.8,N/A,Maintenance,51,,Beech Glen,ST,Roxbury,MA,02119,11,51 BEECH GLEN,,ROXBURY,MA,02119,13344,42.32445957209921,-71.09525060592132,"(42.32445957209921, -71.09525060592132)"
276,V806319,1013,2024-12-26 08:23:23,Open,105.1,N/A,Failure to Obtain Permit,1162,,Morton,ST,Mattapan,MA,02126,17,1162 Morton ST,,MATTAPAN,MA,02126,97659,42.27580954746868,-71.0732306647095,"(42.27580954746868, -71.0732306647095)"
277,V805002,1013,2024-12-20 15:20:09,Open,102.8,N/A,Maintenance,46,,Massasoit,ST,Mattapan,MA,02136,18,46 Massasiot St,,Hyde Park,MA,02136,92698,42.26224958704436,-71.10033075650112,"(42.26224958704436, -71.10033075650112)"
278,V805052,1013,2024-12-20 13:47:15,Closed,102.8,N/A,Maintenance,1,5,Harvard,AV,Allston,MA,02134,21,C/O O'BRIENS PUB/GAIL ATKINSON,3 HARVARD AVE,BOSTON,MA,02134,156445,42.3552614972918,-71.13290137350627,"(42.3552614972918, -71.13290137350627)"
279,V805020,1013,2024-12-20 09:40:32,Closed,105.4,N/A,Validity of Permit,133,,River,ST,Mattapan,MA,02126,17,45 SIERRA RD,,HYDE PARK,MA,02136,116362,42.27166955249119,-71.07666068128238,"(42.27166955249119, -71.07666068128238)"
280,V805017,1013,2024-12-20 09:26:35,Open,105.1,N/A,Failure to Obtain Permit,31,,Hazleton,ST,Mattapan,MA,02126,14,31 HAZLETON ST UNIT #2,,MATTAPAN,MA,02126,72259,42.27954957676602,-71.09459070455756,"(42.27954957676602, -71.09459070455756)"
281,V805010,1013,2024-12-20 09:06:39,Open,102.8,N/A,Maintenance,31,,Hazleton,ST,Mattapan,MA,02126,14,31 HAZLETON ST UNIT #2,,MATTAPAN,MA,02126,72259,42.27954957676602,-71.09459070455756,"(42.27954957676602, -71.09459070455756)"
282,V805006,1013,2024-12-20 08:53:56,Open,3307,N/A,Protection of Adj. Property,9,,Queen,ST,Dorchester,MA,02122,16,9 QUEEN ST,,DORCHESTER,MA,02122,113713,42.2936795183578,-71.05336857975954,"(42.2936795183578, -71.05336857975954)"
283,V804383,1013,2024-12-18 09:04:18,Open,116,N/A,Unsafe Structures,24,,Factory,ST,Hyde Park,MA,02136,18,1034 EAST ST,,DEDHAM,MA,02026,165148,42.2530886256192,-71.12620583521651,"(42.2530886256192, -71.12620583521651)"
284,V804382,1013,2024-12-18 08:54:10,Open,102.8,N/A,Maintenance,8,10,Winter,ST,Hyde Park,MA,02136,18,39 BRIGHTON AVE,,BOSTON,MA,02134,171888,42.24846718625269,-71.12790443040981,"(42.24846718625269, -71.12790443040981)"
285,V799466,1013,2024-12-18 08:40:58,Closed,102.8,N/A,Maintenance,383,385,Blue Hill,AV,Dorchester,MA,02121,12,"100 HANO ST, Unit SUITE-26",,ALLSTON,MA,02134,16442,42.311689554673414,-71.0811326027668,"(42.311689554673414, -71.0811326027668)"
286,V799428,1013,2024-12-18 08:37:16,Open,105.1,N/A,Failure to Obtain Permit,38,40,Raldne,RD,Hyde Park,MA,02136,18,40 Raldne Rd,,Boston,MA,02136,114462,42.255875647083975,-71.14133686287609,"(42.255875647083975, -71.14133686287609)"
287,V792329,1013,2024-12-18 08:33:43,Closed,105.1,N/A,Failure to Obtain Permit,31,33,Raldne,RD,Hyde Park,MA,02136,18,31 33 RALDNE RD,,HYDE PARK,MA,02136,114459,42.25576964611466,-71.14096086316741,"(42.25576964611466, -71.14096086316741)"
288,V803801,1013,2024-12-13 12:01:22,Closed,110.5,N/A,Inspections,157,,Springfield,ST,Roxbury,MA,02118,09,9 SCHOOL ST,,QUINCY,MA,02169,370179,42.339157603179,-71.07861908931548,"(42.339157603179, -71.07861908931548)"
289,V660178,1013,2024-12-13 10:34:44,Open,110.5,N/A,Inspections,81,,Astoria,ST,Mattapan,MA,02126,18,81 ASTORIA STREET,,MATTAPAN,MA,02126,5654,42.27887956856776,-71.08844069235036,"(42.27887956856776, -71.08844069235036)"
290,V803878,1013,2024-12-13 10:17:27,Closed,105.1,N/A,Failure to Obtain Permit,137,,Hancock,ST,Dorchester,MA,02125,15,12 Ware St,,Dorchester,MA,02125,68886,42.31126952994083,-71.06304056289288,"(42.31126952994083, -71.06304056289288)"
291,V803805,1013,2024-12-12 15:07:29,Closed,107.4,N/A,Failed to comply w permit term,45,,Third,ST,South Boston,MA,02127,06,55 HENSHAW STREET,,BRIGHTON,MA,02135,387641,42.34203363093269,-71.05433052273771,"(42.34203363093269, -71.05433052273771)"
292,V778791,1013,2024-12-11 10:54:10,Open,105.1,N/A,Failure to Obtain Permit,1150,,Hyde Park,AV,Hyde Park,MA,02136,18,1150 HYDE PARK AVE,,HYDE PARK,MA,02136,77059,42.259979619885556,-71.1228308126962,"(42.259979619885556, -71.1228308126962)"
293,V803483,1013,2024-12-11 08:53:07,Open,116,N/A,Unsafe Structures,180,,Kennebec,ST,Mattapan,MA,02126,18,180 Kennebec St,,Mattapan,MA,02126,81124,42.27299959378318,-71.10591074456933,"(42.27299959378318, -71.10591074456933)"
294,V760026,1013,2024-12-10 09:22:37,Closed,1001.3.2,N/A,Testing & Certification,176A,176,Springfield,ST,Roxbury,MA,02118,09,176 SPRINGFIELD STREET,,NEW BEDFORD,MA,02745,171692,42.339474625555425,-71.0796145799315,"(42.339474625555425, -71.0796145799315)"
295,V803061,1013,2024-12-09 11:24:27,Closed,105.1,N/A,Failure to Obtain Permit,1,3,Locust,ST,Mattapan,MA,02136,18,1-3 Locust St,,Hyde Park,MA,02136,172612,42.26582618615236,-71.10683564686883,"(42.26582618615236, -71.10683564686883)"
296,V802994,1013,2024-12-09 09:36:23,Closed,116,N/A,Unsafe Structures,52,,Port Norfolk,ST,Dorchester,MA,02122,16,56 O STREET,,SOUTH  BOSTON,MA,02127,112026,42.29108650115768,-71.04077655759507,"(42.29108650115768, -71.04077655759507)"
297,V802734,1013,2024-12-06 09:24:00,Closed,1001.3.2,N/A,Testing & Certification,100,102,Hammond,ST,Mission Hill,MA,02120,09,241 Perkins St #H201,,Jamaica Plain,MA,02130,68518,42.33672155611769,-71.08379055250043,"(42.33672155611769, -71.08379055250043)"
298,V802733,1013,2024-12-06 09:15:41,Closed,3310.2,N/A,Maintenance of Means of Egress,100,102,Hammond,ST,Mission Hill,MA,02120,09,241 Perkins St H201,,Jamaica Plain,MA,02130,68518,42.33672155611769,-71.08379055250043,"(42.33672155611769, -71.08379055250043)"
299,V802728,1013,2024-12-06 09:02:31,Open,1001.3.2,N/A,Testing & Certification,100,102,Hammond,ST,Mission Hill,MA,02120,09,104 Hammond St,,Roxbury,MA,02120,68518,42.33672155611769,-71.08379055250043,"(42.33672155611769, -71.08379055250043)"
300,V802714,1013,2024-12-06 08:52:50,Open,3310.2,N/A,Maintenance of Means of Egress,100,102,Hammond,ST,Mission Hill,MA,02120,09,104 Hammond St,,Roxbury,MA,02120,68518,42.33672155611769,-71.08379055250043,"(42.33672155611769, -71.08379055250043)"
301,V802720,1013,2024-12-06 08:42:29,Closed,3310.2,N/A,Maintenance of Means of Egress,106,,Hammond,ST,Mission Hill,MA,02120,09,106 Hammond St,,Roxbury,MA,02120,68520,42.33684955565262,-71.08385055236839,"(42.33684955565262, -71.08385055236839)"
302,V802710,1013,2024-12-06 08:12:55,Open,116,N/A,Unsafe Structures,22,,Lafield,ST,Dorchester,MA,02122,16,22 Lafield,,Dorchester,MA,02122,82976,42.29475952658011,-71.05915059071502,"(42.29475952658011, -71.05915059071502)"
303,V802449,1013,2024-12-04 15:19:55,Closed,Art. 17 Section 2.04 (3) ,N/A,Permits,44,,Blenford,RD,Brighton,MA,02135,21,44 Blenford Rd,,Brighton,MA,02135,15992,42.344989642500614,-71.15030068348071,"(42.344989642500614, -71.15030068348071)"
304,V802374,1013,2024-12-04 11:36:00,Open,105.1,N/A,Failure to Obtain Permit,6,8,Eunice,ST,Dorchester,MA,02122,15,6-8 EUNICE ST,,DORCHESTER,MA,02122,54531,42.30442954078095,-71.07014059472229,"(42.30442954078095, -71.07014059472229)"
305,V802372,1013,2024-12-04 11:29:17,Closed,116,N/A,Unsafe Structures,24,,Shetland,ST,Roxbury,MA,02119,08,240 Jamaicaway,,Jamaica Plain,MA,02130,127018,42.32535953580056,-71.0679205421865,"(42.32535953580056, -71.0679205421865)"
306,V802297,1013,2024-12-04 08:50:00,Open,1009.1,N/A,Accessible Means of Egress,202,,Northampton,ST,Roxbury,MA,02118,09,124 Rock Island Rd,,Quincy,MA,02169,103704,42.33767955070362,-71.0799305421728,"(42.33767955070362, -71.0799305421728)"
307,V802280,1013,2024-12-04 08:26:45,Open,110.5,N/A,Inspections,68,,Seaver,ST,Dorchester,MA,02121,12,68 SEAVER ST,,DORCHESTER,MA,02121,124222,42.31142957083729,-71.09304062982649,"(42.31142957083729, -71.09304062982649)"
308,V802282,1013,2024-12-04 08:23:46,Open,105.1,N/A,Failure to Obtain Permit,12,,Havelock,ST,Dorchester,MA,02124,14,12 Havelock,,Dorchester,MA,02124,71277,42.28605957224309,-71.09161068329254,"(42.28605957224309, -71.09161068329254)"
309,V801876,1013,2024-12-02 11:29:49,Open,102.8,N/A,Maintenance,196,198,Lexington,ST,East Boston,MA,02128,01,94 Putnam St,,East Boston,MA,02128,85572,42.37963948611265,-71.03276034298399,"(42.37963948611265, -71.03276034298399)"
310,V800971,1013,2024-12-02 09:35:14,Open,1009.1,N/A,Accessible Means of Egress,204,,Northampton,ST,Roxbury,MA,02118,09,19 Vancouver St Unit 1B,,Boston,MA,02115,103707,42.33770955026651,-71.07998054114005,"(42.33770955026651, -71.07998054114005)"
311,V801486,1013,2024-11-29 09:01:38,Open,116,N/A,Unsafe Structures,73,,Romsey,ST,Dorchester,MA,02125,13,73 Romsey St,,Dorchester,MA,02125,118190,42.31551951590607,-71.05309053102961,"(42.31551951590607, -71.05309053102961)"
312,V801481,1013,2024-11-29 08:50:58,Closed,102.8,N/A,Maintenance,29,,Keystone,ST,West Roxbury,MA,02132,20,29 Keystone,,West Roxbury,MA,02132,81539,42.270359676982714,-71.16476088344093,"(42.270359676982714, -71.16476088344093)"
313,V801477,1013,2024-11-29 08:38:55,Closed,105.1,N/A,Failure to Obtain Permit,150,,Almont,ST,Mattapan,MA,02126,18,150 Almont,,Mattapan,MA,02126,2754,42.2777795823242,-71.09840071702324,"(42.2777795823242, -71.09840071702324)"
314,V801138,1013,2024-11-26 08:26:46,Closed,3310.2,N/A,Maintenance of Means of Egress,64,68,Beach,ST,Boston,MA,02111,03,64 Beachview Rd,,East Boston,MA,02128,9399,42.351376523619145,-71.05999446692034,"(42.351376523619145, -71.05999446692034)"
315,V800917,1013,2024-11-25 11:48:02,Open,1009.1,N/A,Accessible Means of Egress,202,,Northampton,ST,Roxbury,MA,02118,09,202 Northampton #202-4,,Boston,MA,02118,103704,42.33767955070362,-71.0799305421728,"(42.33767955070362, -71.0799305421728)"
316,V790947,1013,2024-11-25 11:43:36,Open,116,N/A,Unsafe Structures,12,,Morley,ST,Roxbury,MA,02119,09,12 MORLEY,,ROXBURY,MA,02119,97462,42.32900956802642,-71.0923005892953,"(42.32900956802642, -71.0923005892953)"
317,V790377,1013,2024-11-25 11:39:20,Open,102.8,N/A,Maintenance,4A,,Rockledge,ST,Roxbury,MA,02119,09,"4A Rockledge St, Unit 2",,ROXBURY,MA,02119,169256,42.32678989019312,-71.09002579722707,"(42.32678989019312, -71.09002579722707)"
318,V788721,1013,2024-11-25 11:34:32,Open,102.8,N/A,Maintenance,2,,Rockledge,ST,Roxbury,MA,02119,09,2 ROCKLEDGE ST,,ROXBURY,MA,02119,117755,42.326839564891856,-71.09024058891417,"(42.326839564891856, -71.09024058891417)"
319,V788724,1013,2024-11-25 11:32:54,Open,102.8,N/A,Maintenance,4,,Rockledge,ST,Roxbury,MA,02119,09,1660 Soldiers Field Rd,,Boston,MA,02135,117757,42.326810565642745,-71.0901055888893,"(42.326810565642745, -71.0901055888893)"
320,V788728,1013,2024-11-25 11:31:32,Open,102.8,N/A,Maintenance,6,6A,Rockledge,ST,Roxbury,MA,02119,09,103 Commonwealth Ave,,Newton,MA,02467,350592,42.32674983894645,-71.08993224528356,"(42.32674983894645, -71.08993224528356)"
321,V770759,1013,2024-11-25 11:21:04,Closed,1001.3.2,N/A,Testing & Certification,47,,Worcester,ST,Roxbury,MA,02118,09,47 WORCESTER ST,,BOSTON,MA,02118,152469,42.33883954617808,-71.07702053244495,"(42.33883954617808, -71.07702053244495)"
322,V770735,1013,2024-11-25 11:16:04,Closed,102.8,N/A,Maintenance,47,,Worcester,ST,Roxbury,MA,02118,09,47 WORCESTER ST,,BOSTON,MA,02118,152469,42.33883954617808,-71.07702053244495,"(42.33883954617808, -71.07702053244495)"
323,V760035,1013,2024-11-25 11:11:42,Closed,107.4,N/A,Failed to comply w permit term,614,614A,Shawmut,AV,Roxbury,MA,02118,09,10 Darling Way,,Stoughton,MA,02072,126451,42.33547380980884,-71.08049824331192,"(42.33547380980884, -71.08049824331192)"
324,V794601,1013,2024-11-25 11:08:35,Closed,1001.3.2,N/A,Testing & Certification,752,,Tremont,ST,Roxbury,MA,02118,09,74 CLARENDON ST SUITE A,C/O HEATH PROPERTIES,BOSTON,MA,02116,137944,42.33978954843001,-71.07887053394887,"(42.33978954843001, -71.07887053394887)"
325,V800911,1013,2024-11-25 09:56:43,Open,1009.1,N/A,Accessible Means of Egress,990,992,Tremont,ST,Mission Hill,MA,02120,09,992 Tremont ST,,Boston,MA,02120,138071,42.33679855602286,-71.08420355379538,"(42.33679855602286, -71.08420355379538)"
326,V800910,1013,2024-11-25 09:55:13,Open,116,N/A,Unsafe Structures,2,,Greendale,RD,Mattapan,MA,02126,14,"74 Oakton AVE, Unit # 76",,DORCHESTER,MA,02122-2202,66516,42.28500957488096,-71.09345068987973,"(42.28500957488096, -71.09345068987973)"
327,V800901,1013,2024-11-25 09:26:19,Open,1009.1,N/A,Accessible Means of Egress,200,,Northampton,ST,Roxbury,MA,02118,09,27 Nancy Rd,,Milton,MA,02186,168255,42.337636461606316,-71.0798644957233,"(42.337636461606316, -71.0798644957233)"
328,V800892,1013,2024-11-25 09:18:18,Open,1009.1,N/A,Accessible Means of Egress,204,,Northampton,ST,Roxbury,MA,02118,09,19 Vancouver St Unit 1B,,BOSTON,MA,02115,103707,42.33770955026651,-71.07998054114005,"(42.33770955026651, -71.07998054114005)"
329,V800885,1013,2024-11-25 09:13:21,Open,1009.1,N/A,Accessible Means of Egress,200,,Northampton,ST,Roxbury,MA,02118,09,27 Nancy Rd,,Milton,MA,02186,168255,42.337636461606316,-71.0798644957233,"(42.337636461606316, -71.0798644957233)"
330,V800563,1013,2024-11-22 08:15:02,Open,116,N/A,Unsafe Structures,60,,Goodale,RD,Mattapan,MA,02126,14,420 HARVARD ST,,DORCHESTER,MA,02124,65223,42.28375957587242,-71.09418069334774,"(42.28375957587242, -71.09418069334774)"
331,V800523,1013,2024-11-21 15:40:33,Open,116,N/A,Unsafe Structures,113,,Harold,ST,Dorchester,MA,02121,12,800 Boylston Street,Suite 2500,Boston,MA,02199,69577,42.31752556663829,-71.09014860952821,"(42.31752556663829, -71.09014860952821)"
332,V800452,1013,2024-11-21 11:25:16,Closed,1001.3.2,N/A,Testing & Certification,200,,Northampton,ST,Roxbury,MA,02118,09,124 ROCK ISLAND RD,,QUINCY,MA,02169,168255,42.337636461606316,-71.0798644957233,"(42.337636461606316, -71.0798644957233)"
333,V800433,1013,2024-11-21 10:10:45,Open,105.1,N/A,Failure to Obtain Permit,59,,Whiting,ST,Roxbury,MA,02119,12,3145 Washington St,,Jamaica Plain,MA,02130,149409,42.32474955100304,-71.07962057004157,"(42.32474955100304, -71.07962057004157)"
334,V800240,1013,2024-11-20 11:09:32,Open,105.1,N/A,Failure to Obtain Permit,15,,Henley,ST,Charlestown,MA,02129,02,1195 BBEACON STRET,,BROOKLINE,MA,02446,166180,42.37292535080959,-71.06143796856311,"(42.37292535080959, -71.06143796856311)"
335,V800222,1013,2024-11-20 10:36:59,Open,1001.3.2,N/A,Testing & Certification,238,246,Huntington,AV,Jamaica Plain,MA,02130,10,238 South Huntington Ave,,Boston,MA,02130,76666,42.32481913179739,-71.11198152355517,"(42.32481913179739, -71.11198152355517)"
336,V800208,1013,2024-11-20 10:20:51,Open,102.8,N/A,Maintenance,238,246,Huntington,AV,Jamaica Plain,MA,02130,10,238 South Huntinggton Ave,,Boston,MA,02130,76666,42.32481913179739,-71.11198152355517,"(42.32481913179739, -71.11198152355517)"
337,V800196,1013,2024-11-20 09:26:06,Closed,1001.3.2,N/A,Testing & Certification,208,,Northampton,ST,Roxbury,MA,02118,09,208 NORTHAMPTON ST,,BOSTON,MA,02118,103709,42.337799549814335,-71.0800805415117,"(42.337799549814335, -71.0800805415117)"
338,V800194,1013,2024-11-20 09:18:41,Closed,1001.3.2,N/A,Testing & Certification,206,,Northampton,ST,Roxbury,MA,02118,09,19 VANCOUVER ST,,BOSTON,MA,02115,103708,42.33775955073451,-71.08003054206938,"(42.33775955073451, -71.08003054206938)"
339,V800192,1013,2024-11-20 09:09:03,Closed,1001.3.2,N/A,Testing & Certification,204,,Northampton,ST,Roxbury,MA,02118,09,19 VANCOUVER ST,,BOSTON,MA,02115,103707,42.33770955026651,-71.07998054114005,"(42.33770955026651, -71.07998054114005)"
340,V800031,1013,2024-11-19 12:09:06,Closed,102.8,N/A,Maintenance,158,,Neponset,AVE,Dorchester,MA,02122,16,158 NEPONSET AV #3,,DORCHESTER,MA,02122,100778,42.29348951508545,-71.05085057441715,"(42.29348951508545, -71.05085057441715)"
341,V800021,1013,2024-11-19 11:42:13,Closed,102.8,N/A,Maintenance,147,149,Draper,ST,Dorchester,MA,02122,15,147 DRAPER ST,,DORCHESTER,MA,02122,49414,42.306489534119756,-71.06587058004278,"(42.306489534119756, -71.06587058004278)"
342,V792005,1013,2024-11-18 14:48:16,Open,105.1,N/A,Failure to Obtain Permit,19,,Bodwell,ST,Dorchester,MA,02125,15,19 BODWELL ST,,DORCHESTER,MA,02125,16713,42.312859539299005,-71.06997057382742,"(42.312859539299005, -71.06997057382742)"
343,V799465,1013,2024-11-15 15:39:14,Open,102.8,N/A,Maintenance,387,389,Blue Hill,AV,Dorchester,MA,02121,12,619 Centre St,,Jamaica Plain,MA,02130,16445,42.31163855469459,-71.08117560216856,"(42.31163855469459, -71.08117560216856)"
344,V773974,1013,2024-11-15 12:18:34,Closed,105.1,N/A,Failure to Obtain Permit,26,,Hopewell,RD,Mattapan,MA,02136,18,26 HOPEWELL RD,,HYDE PARK,MA,02136,75256,42.26104959169832,-71.10339076513493,"(42.26104959169832, -71.10339076513493)"
345,V781312,1013,2024-11-15 12:09:59,Open,105.1,N/A,Failure to Obtain Permit,26,28,Cedrus,AV,Roslindale,MA,02131,18,41 WOODLAWN RD,,RANDOLPH,MA,02368,27222,42.27885963486708,-71.13561079842205,"(42.27885963486708, -71.13561079842205)"
346,V785057,1013,2024-11-15 12:09:00,Closed,Article 89 Sec 9,N/A,Accessory keeping of hens,15,,Rickerhill,RD,West Roxbury,MA,02132,20,15 Rickerhill Rd,,West Roxbury,MA,02132,115887,42.29411965774104,-71.1541908067094,"(42.29411965774104, -71.1541908067094)"
347,V781303,1013,2024-11-15 12:07:54,Closed,105.1,N/A,Failure to Obtain Permit,37,,Rosewood,ST,Mattapan,MA,02126,18,37 ROSEWOOD ST,,MATTAPAN,MA,02126,118556,42.2682095827405,-71.09813073838482,"(42.2682095827405, -71.09813073838482)"
348,V779234,1013,2024-11-15 11:52:54,Open,105.1,N/A,Failure to Obtain Permit,204,,Greenfield,RD,Mattapan,MA,02136,18,34 Mayflower Rd,,Winchester,MA,01890,66568,42.27127959535557,-71.10660074996623,"(42.27127959535557, -71.10660074996623)"
349,V799399,1013,2024-11-15 09:12:13,Open,105.1,N/A,Failure to Obtain Permit,127,129,Walnut,ST,Dorchester,MA,02122,16,129 Walnut St,,Boston,MA,02122,142105,42.28903349960406,-71.03976055982282,"(42.28903349960406, -71.03976055982282)"
350,V799391,1013,2024-11-15 08:57:32,Open,116,N/A,Unsafe Structures,5,,Weyanoke,ST,Dorchester,MA,02124,16,5 Weyanoke St,,Boston,Ma,02124,148987,42.28277952991285,-71.06075062147892,"(42.28277952991285, -71.06075062147892)"
351,V550795,1013,2024-11-14 15:49:44,Closed,105.1,N/A,Failure to Obtain Permit,6,,Westcott,ST,Dorchester,MA,02124,14,6 WESCOTT ST,,DORCHESTER,MA,02124,148115,42.293689553268536,-71.07874063794397,"(42.293689553268536, -71.07874063794397)"
352,V799324,1013,2024-11-14 13:57:21,Closed,102.8,N/A,Maintenance,936,,Dorchester,AVE,Dorchester,MA,02125,13,936 DORCHESTER AV,,DORCHESTER,MA,02125,48784,42.318879520491855,-71.05648053093941,"(42.318879520491855, -71.05648053093941)"
353,V798970,1013,2024-11-13 09:38:03,Closed,116,N/A,Unsafe Structures,440,,Ashmont,ST,Dorchester,MA,02122,16,8 Stuart Ave,,Plymouth,MA,02360,180075,42.28853952073129,-71.05499059475456,"(42.28853952073129, -71.05499059475456)"
354,V798958,1013,2024-11-13 09:25:37,Closed,116,N/A,Unsafe Structures,232,,Cambridge,ST,Boston,MA,02114,05,21 Kimball St,,Boston,MA,02122,201120,42.36095953080734,-71.06669045956866,"(42.36095953080734, -71.06669045956866)"
355,V798795,1013,2024-11-12 13:54:00,Closed,105.1,N/A,Failure to Obtain Permit,45,,Winthrop,ST,Roxbury,MA,02119,12,45 Winthrop St,,Boston,MA,02119,151037,42.32560955163152,-71.08013056935285,"(42.32560955163152, -71.08013056935285)"
356,V798729,1013,2024-11-12 11:25:42,Open,105.1,N/A,Failure to Obtain Permit,59,,Whiting,ST,Roxbury,MA,02119,12,3145 Washington St,,Boston,MA,02130,149409,42.32474955100304,-71.07962057004157,"(42.32474955100304, -71.07962057004157)"
357,V798667,1013,2024-11-12 10:02:30,Open,3310.2,N/A,Maintenance of Means of Egress,17,23,Beach,ST,Boston,MA,02111,03,400 SOUTH AVNEUE,,WESTON,MA,02493,161858,42.35131339124589,-71.06199558776353,"(42.35131339124589, -71.06199558776353)"
358,V798650,1013,2024-11-12 09:37:28,Open,105.4,N/A,Validity of Permit,17,23,Beach,ST,Boston,MA,02111,03,400 SOUTH AVENUE,,WESTON,MA,02493,161858,42.35131339124589,-71.06199558776353,"(42.35131339124589, -71.06199558776353)"
359,V798638,1013,2024-11-12 09:26:16,Open,110.7,N/A,Periodic Inspections,17,23,Beach,ST,Boston,MA,02111,03,400 SOUTH AVENUE,,WESTON,MA,02493,161858,42.35131339124589,-71.06199558776353,"(42.35131339124589, -71.06199558776353)"
360,V798627,1013,2024-11-12 09:07:27,Open,105.1,N/A,Failure to Obtain Permit,17,23,Beach,ST,Boston,MA,02111,03,400 SOUTH AVENUE,,WESTON,MA,02493,161858,42.35131339124589,-71.06199558776353,"(42.35131339124589, -71.06199558776353)"
361,V798626,1013,2024-11-12 09:05:14,Open,1001.3.2,N/A,Testing & Certification,17,23,Beach,ST,Boston,MA,02111,03,400 SOUTH AVENUE,,WESTON,MA,02493,161858,42.35131339124589,-71.06199558776353,"(42.35131339124589, -71.06199558776353)"
362,V798623,1013,2024-11-12 08:55:07,Open,111.1,N/A,Certificate of Occupancy,17,23,Beach,ST,Boston,MA,02111,03,400 SOUTH AVENUE,,WESTON,MA,02493,161858,42.35131339124589,-71.06199558776353,"(42.35131339124589, -71.06199558776353)"
363,V798610,1013,2024-11-12 08:42:49,Open,111.1,N/A,Certificate of Occupancy,17,23,Beach,ST,Boston,MA,02111,03,400 SOUTH AVENUE,,WESTON,MA,02493,161858,42.35131339124589,-71.06199558776353,"(42.35131339124589, -71.06199558776353)"
364,V798350,1013,2024-11-08 10:31:35,Closed,116.1,N/A,Unsafe and Dangerous,54,,Temple,ST,Boston,MA,02114,03,54 Temple St,,Boston,MA,02114,134179,42.35978914175974,-71.0634456555196,"(42.35978914175974, -71.0634456555196)"
365,V777827,1013,2024-11-07 12:15:02,Closed,1001.3.2,N/A,Testing & Certification,96,,Cedar,ST,Boston,MA,02114,05,55 FOREST RIDGE RD,,WESTON,MA,02493,27086,42.36065953540479,-71.07021046879217,"(42.36065953540479, -71.07021046879217)"
366,V777796,1013,2024-11-07 12:13:04,Closed,102.8,N/A,Maintenance,96,,Cedar,ST,Boston,MA,02114,05,55 FOREST RIDGE ROAD,,WESTON,MA,02493,27086,42.36065953540479,-71.07021046879217,"(42.36065953540479, -71.07021046879217)"
367,V699527,1013,2024-11-07 12:10:36,Closed,110.7,N/A,Periodic Inspections,93,,Beacon,ST,Boston,MA,02108,05,14 Greenwood St,,Newton,MA,02459,12466,42.35574553881388,-71.07238648422063,"(42.35574553881388, -71.07238648422063)"
368,V777816,1013,2024-11-07 12:06:23,Open,105.1,N/A,Failure to Obtain Permit,124,,Beacon,ST,Boston,MA,02116,05,C/O LIGHTHOUSE REALTY MANAGEMENT LLC,561 BOYLSTON ST 4TH FL,BOSTON,MA,02116,9550,42.355154088581465,-71.07440862309879,"(42.355154088581465, -71.07440862309879)"
369,V780261,1013,2024-11-07 11:58:18,Closed,105.6,N/A,Suspension or Revocation,195,,Beacon,ST,Boston,MA,02116,05,"11 ELKINS ST, STE 240",,BOSTON,MA,02127,10033,42.35408954401666,-71.0764704969533,"(42.35408954401666, -71.0764704969533)"
370,V797364,1013,2024-11-05 15:21:57,Closed,10.14(b),N/A,Water Supply & the Water Distribution System,2,,Aramon,ST,East Boston,MA,02128,01,1 ARAMON ST,,E BOSTON,MA,02128,4213,42.36620548427929,-71.03112936803272,"(42.36620548427929, -71.03112936803272)"
371,V797364,1013,2024-11-05 15:21:57,Closed,10.11,N/A,Hangers & Supports,2,,Aramon,ST,East Boston,MA,02128,01,1 ARAMON ST,,E BOSTON,MA,02128,4213,42.36620548427929,-71.03112936803272,"(42.36620548427929, -71.03112936803272)"
372,V797648,1013,2024-11-05 12:46:18,Closed,102.8,N/A,Maintenance,17,,Woodville,ST,Roxbury,MA,02119,08,"899 Congress ST, Unit Apt 723",,BOSTON,MA,02210-2831,151991,42.32140954650277,-71.07549056754198,"(42.32140954650277, -71.07549056754198)"
373,V797646,1013,2024-11-05 12:39:51,Closed,102.8,N/A,Maintenance,15,,Woodville,ST,Roxbury,MA,02119,08,15 WOODVILLE ST,,ROXBURY,MA,02119,151989,42.32142954632581,-71.0753405674369,"(42.32142954632581, -71.0753405674369)"
374,V797642,1013,2024-11-05 12:32:12,Open,102.8,N/A,Maintenance,61,,Wayland,ST,Dorchester,MA,02125,13,61 WAYLAND ST,,DORCHESTER,MA,02125,146655,42.31384954562154,-71.0743305828601,"(42.31384954562154, -71.0743305828601)"
375,V797628,1013,2024-11-05 12:19:00,Open,102.8,N/A,Maintenance,497,,Fourth,ST,South Boston,MA,02127,07,101 ARBOR ST,,SAN FRANCISCO,CA,94131,59778,42.33437950455414,-71.04532047085789,"(42.33437950455414, -71.04532047085789)"
376,V797620,1013,2024-11-05 12:10:32,Open,102.8,N/A,Maintenance,19,21,Osceola,ST,Mattapan,MA,02136,18,19 OSCEOLA ST,,HYDE PARK,MA,02136-6418,106036,42.26256459137803,-71.1031277623209,"(42.26256459137803, -71.1031277623209)"
377,V797613,1013,2024-11-05 12:02:47,Closed,102.8,N/A,Maintenance,294,296,Neponset Valley,PW,Hyde Park,MA,02136,18,294 NEPONSETVALLEY PKWY,,HYDE PARK,MA,02136,100984,42.23596969609839,-71.12604085488391,"(42.23596969609839, -71.12604085488391)"
378,V797609,1013,2024-11-05 11:45:53,Closed,105.1,N/A,Failure to Obtain Permit,17,,Woodville,ST,Roxbury,MA,02119,08,"899 Congress ST, Unit Apt 723",,BOSTON,MA,02210-2831,151991,42.32140954650277,-71.07549056754198,"(42.32140954650277, -71.07549056754198)"
379,V797588,1013,2024-11-05 11:04:07,Open,105.1,N/A,Failure to Obtain Permit,19,21,Osceola,ST,Mattapan,MA,02136,18,19 OSCEOLA ST,,HYDE PARK,MA,02136-6418,106036,42.26256459137803,-71.1031277623209,"(42.26256459137803, -71.1031277623209)"
380,V797581,1013,2024-11-05 10:52:35,Closed,105.1,N/A,Failure to Obtain Permit,15,,Woodville,ST,Roxbury,MA,02119,08,15 WOODVILLE ST,,ROXBURY,MA,02119,151989,42.32142954632581,-71.0753405674369,"(42.32142954632581, -71.0753405674369)"
381,V792621,1013,2024-11-04 11:06:17,Closed,110.27,N/A,Guarding of Live parts,653,,Warren,ST,Dorchester,MA,02121,12,12 CATTAIL LANE,,SHARON,MA,02067,377191,42.30971955716529,-71.08300061049941,"(42.30971955716529, -71.08300061049941)"
382,V797185,1013,2024-11-04 09:18:50,Closed,102.8,N/A,Maintenance,8,,Wolcott,CT,Hyde Park,MA,02136,18,1 MCKINLEY SQUARE 3RD FLOOR,,BOSTON,MA,02109,413239,42.23755969517394,-71.13134086423526,"(42.23755969517394, -71.13134086423526)"
383,V797161,1013,2024-11-04 08:33:15,Open,116,N/A,Unsafe Structures,10,,Melville,AVE,Dorchester,MA,02124,17,110 Melville Ave,,Dorchester,MA,02124,94030,42.29415954127611,-71.07027061706276,"(42.29415954127611, -71.07027061706276)"
384,V796911,1013,2024-11-01 11:49:21,Closed,102.8,N/A,Maintenance,21,23,Irving,ST,Boston,MA,02114,05,126 ADAMS ST,,MILTON,MA,02186,78919,42.36046952975148,-71.06649046103485,"(42.36046952975148, -71.06649046103485)"
385,V785885,1013,2024-11-01 09:18:02,Closed,105.1,N/A,Failure to Obtain Permit,51,,Montmorenci,AV,East Boston,MA,02128,01,51 MONTMORENCI AV,,EAST BOSTON,MA,02128,96740,42.391349453978584,-71.00715025889502,"(42.391349453978584, -71.00715025889502)"
386,V796845,1013,2024-11-01 08:39:17,Open,105.1,N/A,Failure to Obtain Permit,518,520,Park,ST,Dorchester,MA,02124,17,34 TOLMAN ST,,DORCHESTER,MA,02122,107374,42.29507954627092,-71.07380062285206,"(42.29507954627092, -71.07380062285206)"
387,V796644,1013,2024-10-31 09:11:17,Closed,248CMR 3.05b,N/A,Requirements,417,423C,Broadway,,South Boston,MA,02127,06,NORMAN A LEVENSON TRUSTEE,896 BEACON ST C/O COPLEY MANAGEMENT,BOSTON,MA,02215,21499,42.33649750752286,-71.04777847245511,"(42.33649750752286, -71.04777847245511)"
388,V796644,1013,2024-10-31 09:11:17,Closed,10.02 (6),N/A,Required Plumbing Fixtures,417,423C,Broadway,,South Boston,MA,02127,06,NORMAN A LEVENSON TRUSTEE,896 BEACON ST C/O COPLEY MANAGEMENT,BOSTON,MA,02215,21499,42.33649750752286,-71.04777847245511,"(42.33649750752286, -71.04777847245511)"
389,V796634,1013,2024-10-31 08:37:46,Open,116,N/A,Unsafe Structures,1049,,Hyde Park,AV,Hyde Park,MA,02136,18,1049 HYDE PARK AVE,,HYDE PARK,MA,02136,77015,42.263429617481655,-71.12175080188294,"(42.263429617481655, -71.12175080188294)"
390,V796111,1013,2024-10-29 09:25:07,Closed,104.6,N/A,Right of Entry,43,,Nottinghill,RD,Brighton,MA,02135,21,15 RESERVOIR RD,,CHESTNUT HILL,MA,02467,104257,42.34282964277063,-71.15013068862346,"(42.34282964277063, -71.15013068862346)"
391,V777867,1013,2024-10-28 12:54:23,Open,102.8,N/A,Maintenance,99,,Beacon,ST,Hyde Park,MA,02136,18,27 Mica Lane SUITE 202,,Wellesley,MA,02481,12540,42.2553396055568,-71.11269079972344,"(42.2553396055568, -71.11269079972344)"
392,V777032,1013,2024-10-28 12:47:09,Closed,102.8,N/A,Maintenance,527-545,,Dudley,ST,Roxbury,MA,02119,08,7 Country Way,,Randolph,MA,02368,459840,42.32190460934186,-71.07257728658008,"(42.32190460934186, -71.07257728658008)"
393,V790409,1013,2024-10-28 12:43:53,Closed,105.1,N/A,Failure to Obtain Permit,160,,Westminster,ST,Hyde Park,MA,02136,18,160 Westminster street,,Hyde Park,MA,02136,148566,42.2654596053237,-71.1132307780389,"(42.2654596053237, -71.1132307780389)"
394,V751213,1013,2024-10-28 12:39:08,Closed,105.1,N/A,Failure to Obtain Permit,72,74,Glendale,ST,Dorchester,MA,02125,15,71 GLENDALE STREET,,DORCHESTER,MA,02125,64221,42.31310953933942,-71.06971057369022,"(42.31310953933942, -71.06971057369022)"
395,V795837,1013,2024-10-28 09:21:42,Open,4-3,N/A,Building or Use of Premise req,1430,,Blue Hill,AV,Mattapan,MA,02126,18,1430 Blue Hill Ave,,Boston,MA,02126,16274,42.27514157519984,-71.09317571145125,"(42.27514157519984, -71.09317571145125)"
396,V795838,1013,2024-10-28 09:11:20,Open,105.1,N/A,Failure to Obtain Permit,1091,,Hyde Park,AV,Hyde Park,MA,02136,18,1091 HYDE PARK AV,,HYDE PARK,MA,02136,77031,42.26221961817687,-71.12211080567886,"(42.26221961817687, -71.12211080567886)"
397,V795833,1013,2024-10-28 09:00:19,Closed,102.8,N/A,Maintenance,54,,Gardner,ST,West Roxbury,MA,02132,20,54 Gardner St,,Allston,MA,02134,350496,42.27709712956859,-71.16793093678757,"(42.27709712956859, -71.16793093678757)"
398,V795820,1013,2024-10-28 08:49:45,Open,105.1,N/A,Failure to Obtain Permit,54,,Gardner,ST,Allston,MA,02134,21,54 Gardner St,,Allston,MA,02134,62619,42.35381961176379,-71.12870061481959,"(42.35381961176379, -71.12870061481959)"
399,V795815,1013,2024-10-28 08:25:51,Closed,105.1,N/A,Failure to Obtain Permit,133,,Peterborough,ST,Boston,MA,02215,21,109 Peterborough,,Boston,MA,02215,109779,42.34290357776477,-71.10096657716373,"(42.34290357776477, -71.10096657716373)"
400,V795363,1013,2024-10-24 11:11:15,Open,105.1,N/A,Failure to Obtain Permit,9,,Vaughan,AV,Dorchester,MA,02121,14,71 CENTRE ST,,ROXBURY,MA,02119,139925,42.305747096484275,-71.07689871713043,"(42.305747096484275, -71.07689871713043)"
401,V795365,1013,2024-10-24 11:07:37,Open,102.8,N/A,Maintenance,9,,Vaughan,AV,Dorchester,MA,02121,14,71 CENTRE ST,,ROXBURY,MA,02119,139925,42.305747096484275,-71.07689871713043,"(42.305747096484275, -71.07689871713043)"
402,V795170,1013,2024-10-23 12:00:01,Open,102.8,N/A,Maintenance,12,,Bailey,ST,Dorchester,MA,02124,17,"396 Washington St, Suite #153",,Wellesley Hills,MA,02481,7504,42.28348954278736,-71.07053064174679,"(42.28348954278736, -71.07053064174679)"
403,V795135,1013,2024-10-23 10:37:54,Open,105.1,N/A,Failure to Obtain Permit,115,,Havre,ST,East Boston,MA,02128,01,40 Everett St,,East Boston,MA,02128,166137,42.3727076564822,-71.03824679349657,"(42.3727076564822, -71.03824679349657)"
404,V795132,1013,2024-10-23 10:18:33,Open,102.8,N/A,Maintenance,174,,Boston,ST,Dorchester,MA,02125,07,50 Liberty Dr Suite 9f,,Boston,MA,02210,17118,42.32366952548678,-71.05987052724937,"(42.32366952548678, -71.05987052724937)"
405,V795112,1013,2024-10-23 09:42:22,Open,104.6,N/A,Right of Entry,8,,Harvest,ST,Dorchester,MA,02125,07,384 HARRISON AVE APT 3C,,Boston,MA,02111,71041,42.32243952187081,-71.05717052399031,"(42.32243952187081, -71.05717052399031)"
406,V795090,1013,2024-10-23 08:56:51,Open,105.1,N/A,Failure to Obtain Permit,41,,Evelyn,ST,Mattapan,MA,02126,18,48 Gaten St,,brockton,MA,02302,54874,42.27906957252316,-71.09122069732852,"(42.27906957252316, -71.09122069732852)"
407,V795089,1013,2024-10-23 08:10:11,Open,105.1,N/A,Failure to Obtain Permit,41,,Evelyn,ST,Mattapan,MA,02126,18,48 GATEN ST,,BROCKTON,MA,02302,54874,42.27906957252316,-71.09122069732852,"(42.27906957252316, -71.09122069732852)"
408,V794966,1013,2024-10-22 13:48:28,Closed,102.8,N/A,Maintenance,35,,Northampton,ST,Roxbury,MA,02118,08,35 NORTHAMPTON ST,,BOSTON,MA,02118,158137,42.333950587006974,-71.07504255766626,"(42.333950587006974, -71.07504255766626)"
409,V794852,1013,2024-10-22 08:35:47,Open,116,N/A,Unsafe Structures,37,39,Litchfield,ST,Brighton,MA,02135,22,15 ELMER ST,,CAMBRIDGE,MA,02138,86713,42.359447627443245,-71.14088862943774,"(42.359447627443245, -71.14088862943774)"
410,V785923,1013,2024-10-22 08:20:06,Open,105.1,N/A,Failure to Obtain Permit,72,,Lewiston,ST,Hyde Park,MA,02136,18,72 LEWISTON ST,,HYDE PARK,MA,02136,85384,42.264689602007266,-71.11074077517483,"(42.264689602007266, -71.11074077517483)"
411,V787028,1013,2024-10-22 08:16:27,Closed,102.8,N/A,Maintenance,1596,1600A,Blue Hill,AV,Mattapan,MA,02126,18,299 GALLIVAN BLVD,,DORCHESTER,MA,02124,162266,42.269327153723516,-71.0932621613814,"(42.269327153723516, -71.0932621613814)"
412,V785355,1013,2024-10-22 08:14:47,Closed,116.1,N/A,Unsafe and Dangerous,1129,,Hyde Park,AV,Hyde Park,MA,02136,18,1129 HYDE PARK AV,,HYDE PARK,MA,02136,77050,42.26090962018149,-71.12295081077121,"(42.26090962018149, -71.12295081077121)"
413,V782245,1013,2024-10-22 08:10:14,Open,102.8,N/A,Maintenance,1129,,Hyde Park,AV,Hyde Park,MA,02136,18,1129 HYDE PARK AV,,HYDE PARK,MA,02136,77050,42.26090962018149,-71.12295081077121,"(42.26090962018149, -71.12295081077121)"
414,V782729,1013,2024-10-22 08:05:40,Closed,116,N/A,Unsafe Structures,1129,,Hyde Park,AV,Hyde Park,MA,02136,18,1129 HYDE PARK AV,,HYDE PARK,MA,02136,77050,42.26090962018149,-71.12295081077121,"(42.26090962018149, -71.12295081077121)"
415,V779242,1013,2024-10-21 15:11:08,Open,116,N/A,Unsafe Structures,131,,Greenfield,RD,Mattapan,MA,02126,18,131 GREENFIELD RD,Unit 2,Mattapan,MA,02126,66548,42.26934959181255,-71.10384074828227,"(42.26934959181255, -71.10384074828227)"
416,V744196,1013,2024-10-21 15:08:08,Closed,105.1,N/A,Failure to Obtain Permit,516,,Harvard,ST,Mattapan,MA,02126,14,"4238 Washington St, Unit B",,Roslindale,MA,02131,70899,42.28716957684058,-71.09459068674215,"(42.28716957684058, -71.09459068674215)"
417,V777820,1013,2024-10-21 13:11:32,Open,1012.2,N/A,Slope,31,,Queensberry,ST,Boston,MA,02215,05,3135 QUEENSBERRY ST,,BOSTON,MA,02215,168982,42.34321011721648,-71.09641212119931,"(42.34321011721648, -71.09641212119931)"
418,V777835,1013,2024-10-21 10:55:49,Open,1012.2,N/A,Slope,35,,Queensberry,ST,Boston,MA,02215,05,28 Huckleberry Road,,Lynnfield,MA,01940,420024,42.34311318193416,-71.09656367703339,"(42.34311318193416, -71.09656367703339)"
419,V794600,1013,2024-10-21 09:55:59,Open,1001.3.2,N/A,Testing & Certification,748,,Tremont,ST,Roxbury,MA,02118,09,748A748 TREMONT ST,,BOSTON,MA,02118,137937,42.339869548049336,-71.07875053345899,"(42.339869548049336, -71.07875053345899)"
420,V794596,1013,2024-10-21 09:36:08,Open,116,N/A,Unsafe Structures,670,,Columbia,RD,Dorchester,MA,02125,07,54 Sunnyside Rd,,Milton,MA,02186,35352,42.31949952967017,-71.06319054405677,"(42.31949952967017, -71.06319054405677)"
421,V794280,1013,2024-10-18 10:50:49,Closed,102.8,N/A,Maintenance,13,,Hendry,ST,Dorchester,MA,02122,15,23 MILFORD ST,,BOSTON,MA,02118,72884,42.3092395325073,-71.06470057142919,"(42.3092395325073, -71.06470057142919)"
422,V794272,1013,2024-10-18 10:20:23,Open,105.1,N/A,Failure to Obtain Permit,263,265,Wood,AV,Hyde Park,MA,02136,18,264-266 WOOD AVE,,HYDE PARK,MA,02136,151260,42.26480460122977,-71.1102357730544,"(42.26480460122977, -71.1102357730544)"
423,V794240,1013,2024-10-18 08:54:21,Open,105.1,N/A,Failure to Obtain Permit,1260,1278,Hyde Park,AV,Hyde Park,MA,02136,18,1340 CENTRE ST #101,,NEWTON,MA,02459,166502,42.25563130479646,-71.1238208357429,"(42.25563130479646, -71.1238208357429)"
424,V794237,1013,2024-10-18 08:33:11,Open,3307.1,N/A,Protection of Adj. Property,117,,Townsend,ST,Dorchester,MA,02121,12,29 Taft Street,Unit 1,Dorchester,MA,02125,136415,42.31786956561833,-71.0897006077213,"(42.31786956561833, -71.0897006077213)"
425,V793775,1013,2024-10-16 10:18:53,Closed,105.1,N/A,Failure to Obtain Permit,1299,1301,River,ST,Hyde Park,MA,02136,18,40 Station ST,,QUINCY,MA,02169-6567,116353,42.25586962328144,-71.12493082610257,"(42.25586962328144, -71.12493082610257)"
